author_name,affiliation,city,country,publication_date,title,latitude,longitude,cluster
Rogozhnikov D.,York University,Toronto,Canada,2016-12-23,Scaffold Free Bio-orthogonal Assembly of 3-Dimensional Cardiac Tissue via Cell Surface Engineering,43.6534817,-79.3839347,0
Kim J.,Wake Forest University School of Medicine,Winston Salem,United States,2016-12-01,Three-dimensional cell-based bioprinting for soft tissue regeneration,36.0998131,-80.2440518,0
Naconsie M.,CAS Center for Excellence in Molecular Plant Sciences / Institute of Plant Physiology and Ecology,Shanghai,China,2016-12-01,Transgenic technologies in cassava for nutritional improvement and viral disease resistance: A key strategy for food security in Africa,31.2312707,121.4700152,1
Kumar N.,University of Memphis,Memphis,United States,2016-12-01,Most likely Voronoi diagrams in higher dimensions,35.1460249,-90.0517638,0
Brozek-Pluska B.,Lodz University of Technology,Lodz,Poland,2016-12-28,Development of a new diagnostic Raman method for monitoring epigenetic modifications in the cancer cells of human breast tissue,51.7728245,19.478485931307937,2
Kovalev I.A.,"A.A.Baikov Institute of Metallurgy and Materials Science, Russian Academy of Sciences",Moscow,Russian Federation,2016-12-01,High-temperature titanium nitridation kinetics,55.625578,37.6063916,2
Kumar A.,Indian Institute of Technology Delhi,New Delhi,India,2016-12-01,Capacitated k-center problem with vertex weights,28.64308585,77.21926705734865,3
Wang P.,Beijing University of Posts and Telecommunications,Beijing,China,2016-12-30,The analysis and design of the job recommendation model based on GBRT and time factors,40.190632,116.412144,1
Sabatini R.,RMIT University,Melbourne,Australia,2016-12-07,Trajectory optimisation for avionics-based GNSS integrity augmentation system,-37.8142454,144.9631732,4
Zhang X.,Yangtze University,Jingzhou,China,2016-12-01,Identification of pore types and study of poroperm relationships based on logging data in puguang carbonate reservoir,30.3375612,112.2337264,1
Qu M.,Southwest Jiaotong University,Chengdu,China,2016-12-01,Model test of stone columns as liquefaction countermeasure in sandy soils,30.6598628,104.0633717,1
Zhang C.,Harbin Institute of Technology,Harbin,China,2016-12-01,High stability attitude control for flexible satellite based on frequency-domain analysis,45.7593633,126.6276177,1
dos Santos Neto P.d.A.,Universidade Federal do Piauí,Teresina,Brazil,2016-12-01,A hybrid approach to suggest software product line portfolios,-5.0874608,-42.8049571,23
Hauer C.,BOKU University,Vienna,Austria,2016-12-01,Ecological importance of sediments and morphological structures for small hydropower plants,48.2083537,16.3725042,2
Jain P.,Amity University,Noida,India,2016-12-15,ISM based identification of quality attributes for agile development,28.5706333,77.3272147,3
Fung T.,"U.S. Army Research, Development and Engineering Command",Aberdeen,United States,2016-12-22,Distributed SATCOM On-The-Move (SOTM) Terminal Open Standard Architecture,45.4649805,-98.487813,0
Ge Y.,Anhui Polytechnic University,Wuhu,China,2016-12-16,Fault location in distributed information systems,31.1800568,118.2141777,1
Santisi d'Avila M.P.,Laboratoire de Mathématiques J.A. Dieudonné,Nice,France,2016-12-01,Localization of deformation and loss of macroscopic ellipticity in microstructured solids,43.7009358,7.2683912,2
Nilsson K.F.,European Commission Joint Research Centre,Brussels,Belgium,2016-12-01,Assessment of thermal fatigue life for 316L and P91 pipe components at elevated temperatures,50.8465573,4.351697,2
Taghizadeh Naderi P.,Shahid Beheshti University,Tehran,Iran,2016-12-29,Quality of claim metrics in social sensing systems: A case study on IranDeal,35.6892523,51.3896004,2
Martínez-García E.,CSIC - Centro Nacional de Biotecnologia (CNB),Madrid,Spain,2016-12-01,The quest for the minimal bacterial genome,40.4167047,-3.7035825,2
Lee J.H.,Kookmin University,Seoul,South Korea,2016-12-01,Design and verification of the hardware architecture for the active seat belt control system compliant to ISO 26262,37.5666791,126.9782914,1
Ramasamy S.,RMIT University,Melbourne,Australia,2016-12-07,A unified approach to separation assurance and collision avoidance for flight management systems,-37.8142454,144.9631732,4
Cho H.,Chosun University,Gwangju,South Korea,2016-12-01,Molecular modeling and redesign of alginate lyase from Pseudomonas aeruginosa for accelerating CRPA biofilm degradation,35.1594647,126.8515034,1
Liu Z.,Southwest Jiaotong University,Chengdu,China,2016-12-25,A dynamic meso-constitutive model of frozen soil based on ice particulate-reinforced material,30.6598628,104.0633717,1
Kim J.J.,Auckland Bioengineering Institute,Auckland,New Zealand,2016-12-01,Applying Physiologically Relevant Strains to Tenocytes in an in Vitro Cell Device Induces in Vivo Like Behaviors,-36.852095,174.7631803,5
Sousa M.L.,Faculdade de Ciências e Tecnologia da Universidade Nova de Lisboa,Caparica,Portugal,2016-12-01,Roads for the 1940 Portuguese nationality commemorations: Modernising by excess in a context of scarcity,38.65374105,-9.208963679535769,2
Sabor N.,Faculty of Engineering,Asyut,Egypt,2016-12-01,A Graphical-based educational simulation tool for Wireless Sensor Networks,27.1832822,31.1853836,2
Pogrzeba T.,Technische Universität Berlin,Berlin,Germany,2016-12-21,Catalytic reactions in aqueous surfactant-free multiphase emulsions,52.510885,13.3989367,2
Schneider T.,Università della Svizzera italiana,Lugano,Switzerland,2016-12-09,CuboidMatrix: Exploring dynamic structural connections in software components using space-time cube,46.0050102,8.9520281,2
Gau R.,National Chiao Tung University,Hsinchu,Taiwan,2016-12-21,Optimizing the service capacity of SDN-based cellular networks with service chaining and NFV,24.8066333,120.9686833,1
Ahmadi R.,Universiti Malaysia Sarawak,Kota Samarahan,Malaysia,2016-12-12,"Production and Characterisation of Microfine Sized Palm Oil Fuel Ash (POFA) Originated from Bau, Lundu Palm Oil Mill",1.4596157,110.4954562,-1
Shuvalov G.,FSUE 'Siberian State Order of the Red Banner of Labour Research Institute of Metrology',Unknown,Russian Federation,2016-12-29,Investigation of influence of some factors on accuracy of determining the flashpoint of oil products,50.7958628,85.3259741,6
Tao L.,Xi'an University of Technology,Xi'an,China,2016-12-15,Seismic response analysis for a cooling tower structure considering soil-structure dynamic interaction,34.261004,108.9423363,1
Harris C.A.,National Oceanography Centre Southampton,Southampton,United Kingdom,2016-12-08,Risk and reliability modelling for multi-vehicle marine domains,50.9025349,-1.404189,2
Villalobos-Castaldi F.M.,Universidad Nacional Autónoma de México,Mexico,Mexico,2016-12-22,Pupillometric-based analysis of central autonomic levels using HHT,19.4326296,-99.1331785,7
Yin H.,Xiamen University of Technology,Xiamen,China,2016-12-30,Modified firefly algorithm and its engineering applications,24.5438732,118.0768065,1
Velkoborsky J.,Charles University,Prague,Czech Republic,2016-12-29,Scaffold analysis of PubChem database as background for hierarchical scaffold-based visualization,50.0874654,14.4212535,2
Zhou Y.,NUS Graduate School,Singapore City,Singapore,2016-12-29,Metal-Hydroxide and Gold-Nanocluster Interfaces: Enhancing Catalyst Activity and Stability for Oxygen Evolution Reaction,1.2899175,103.8519072,8
Chen Y.Y.,Fujian Provincial Hospital,Fuzhou,China,2016-12-16,Dental pulp stem cells express tendon markers under mechanical loading and are a potential cell source for tissue engineering of tendon-like tissue,26.0774954,119.2918215,1
Gould R.,Cornell University College of Engineering,Ithaca,United States,2016-12-01,Population Heterogeneity in the Epithelial to Mesenchymal Transition Is Controlled by NFAT and Phosphorylated Sp1,42.4374175,-76.54837235139263,0
Ozawa H.,Institute of Science Tokyo,Tokyo,Japan,2016-12-15,High-pressure melting experiments on Fe–Si alloys and implications for silicon as a light element in the core,35.6768601,139.7638947,1
Kasim S.,Universiti Tun Hussein Onn Malaysia,Batu Pahat,Malaysia,2016-12-07,CMIS: Crime Map Information System for Safety Environment,1.933333,103.0,8
Orlov S.,Transport and telecommunication institute,Riga,Latvia,2016-12-01,Decision Making for the Software Architecture Structure Based on the Criteria Importance Theory,56.9493977,24.1051846,2
Rieder E.,Medizinische Universität Wien,Vienna,Austria,2016-12-01,Human immune-cell response towards diverse xenogeneic and allogeneic decellularized biomaterials,48.2083537,16.3725042,2
Adjepon-Yamoah D.E.,Newcastle University,Newcastle,United Kingdom,2016-12-09,Assuring Dependable Cloud-Based System Engineering: A Cloud Accountability Method,54.9738474,-1.6131572,2
Gentry C.M.,College of Engineering and Applied Science,Boulder,United States,2016-12-16,Tailoring of individual photon lifetimes as a degree of freedom in resonant quantum photonic sources,40.0149856,-105.270545,0
Budaciu C.,Universitatea Tehnica Gh. Asachi din IasI,Iasi,Romania,2016-12-16,Dynamic analysis in discrete time delta domain for unstable bicycle system,47.1615598,27.5837814,2
Liu S.,National Technical University of Athens (NTUA),Athens,Greece,2016-12-01,Improved formula for estimating added resistance of ships in engineering applications,37.9755648,23.7348324,2
Goulart L.R.,UC Davis School of Medicine,Sacramento,United States,2016-12-01,Unraveling antibody display: Systems biology and personalized medicine,38.5810606,-121.493895,0
Gu Q.,Dalian University of Technology,Dalian,China,2016-12-01,Experimental study on the wave loads of twin-plate breakwater under oblique waves,39.740278,122.255833,1
Jamilus M.H.,KLIA Premier Holdings SDN. Bhd.,Unknown,Malaysia,2016-12-07,"""Doing the Wrong Things Right"" Site Investigations in Soft Soil",6.11707015,102.274695678125,8
Harrati N.,Université Mohamed-Chérif Messaadia Souk Ahras,Souk Ahras,Algeria,2016-12-28,Evaluation methods for e-learning applications in terms of user satisfaction and interface usability,36.1378681,7.826242640053763,2
Liu T.,Xiangtan University,Xiangtan,China,2016-12-01,The boosted lipid accumulation in microalga Chlorella vulgaris by a heterotrophy and nutrition-limitation transition cultivation regime,27.681864,112.626292,1
Cuenca J.,Mondragon Unibertsitatea,Mondragon,Spain,2016-12-21,A software engineering process to develop services within the Arrowhead project,43.0656783,-2.4900779,2
Caldeira K.,Carnegie Institution of Washington,"Washington, D.C.",United States,2016-12-08,ERL and the impact of small groups of authors,38.8950368,-77.0365427,0
Jalayer M.,Rutgers University–New Brunswick,New Brunswick,United States,2016-12-01,A multiple correspondence analysis of at-fault motorcycle-involved crashes in Alabama,40.4862174,-74.4518173,0
Berestov A.V.,National Research Nuclear University MEPhI,Moscow,Russian Federation,2016-12-29,Development of laboratory facilities for analogue electronics as part of CDIO standards implementation in the research university,55.625578,37.6063916,2
Dombrowski C.,Rheinisch-Westfälische Technische Hochschule Aachen,Aachen,Germany,2016-12-21,Model-checking assisted protocol design for ultra-reliable low-latency wireless networks,50.776351,6.083862,2
Tickoo A.,Amity University,Noida,India,2016-12-01,Modeling Two-Dimensional Framework for Multi-Upgradations of a Software with Change Point,28.5706333,77.3272147,3
Hussein L.,International Islamic University Malaysia,Kuala Lumpur,Malaysia,2016-12-29,Performance Comparison of (Diff-FH NEMO) Scheme in IPv6-Based Network Mobility,3.1516964,101.6942371,8
Qian J.,Cold and Arid Regions Environmental and Engineering Research Institute Chinese Academy of Sciences,Lanzhou,China,2016-12-01,Analysis of asymmetric temperature fields for the duct-ventilated embankment of highway in permafrost regions,36.474436,103.733224,1
Halaweh M.,"Al Falah University, Dubai",Dubai,United Arab Emirates,2016-12-30,Reflection on the application of the DFSG method,25.2653471,55.2924914,2
Qiu Z.Y.,Information Engineering University China,Zhengzhou,China,2016-12-01,Blind carrier synchronization algorithm based on statistical constellation,34.7533392,113.6599983,1
Haseidl F.,Technische Universität München,Munich,Germany,2016-12-01,Single-Phase Flow Residence-Time Distributions in a Rotor-Stator Spinning Disc Reactor,48.1371079,11.5753822,2
Baneres D.,Universitat Oberta de Catalunya,Barcelona,Spain,2016-12-19,Intelligent Tutoring System for Learning Digital Systems on MOOC Environments,41.3828939,2.1774322,2
Villar M.V.,"Centro de Investigaciones Energéticas, Medioambientales y Tecnológicas",Madrid,Spain,2016-12-01,Saturation of barrier materials under thermal gradient,40.4167047,-3.7035825,2
Zhang K.,Yonsei University,Seoul,South Korea,2016-12-30,Designed seamless outer surface: Application for high voltage LiNi<inf>0.5</inf>Mn<inf>1.5</inf>O<inf>4</inf> cathode with excellent cycling stability,37.5666791,126.9782914,1
Kagale S.,Agriculture and Agri-Food Canada,Ottawa,Canada,2016-12-01,The developmental transcriptome atlas of the biofuel crop Camelina sativa,45.4208777,-75.6901106,0
Scandura P.,Università degli Studi di Catania,Catania,Italy,2016-12-10,A numerical investigation of acceleration-skewed oscillatory flows,37.5023612,15.0873718,2
Liu Q.,Soochow University,Suzhou,China,2016-12-21,Synthesis of lipo-glycopolymers for cell surface engineering,31.311123,120.6212881,1
Ehsani A.,Ferdowsi University of Mashhad,Mashhad,Iran,2016-12-01,Stacking sequence optimization of laminated composite grid plates for maximum buckling load using genetic algorithm,36.2974945,59.6059232,2
Baharuddin I.N.Z.,Universiti Tenaga Nasional,Kajang,Malaysia,2016-12-07,Determination of Slope Instability Using Spatially Integrated Mapping Framework,2.9948437,101.7896595,8
Wang M.,Henan Agricultural University,Zhengzhou,China,2016-12-02,Impairment of sulfite reductase decreases oxidative stress tolerance in Arabidopsis thaliana,34.7533392,113.6599983,1
Azarov A.,Universitetet i Oslo,Oslo,Norway,2016-12-07,Combined ion implantation for defect engineering in GaN and ZnO,59.9133301,10.7389701,2
Rana T.R.,Incheon National University,Incheon,South Korea,2016-12-01,Phase engineering of CBD grown tin sulfide films by post-sulfurization and solar cell application,37.456,126.7052,1
Xiang J.,Wuhan University,Wuhan,China,2016-12-01,Successful Strategies to Determine High-Resolution Structures of GPCRs,30.5951051,114.2999353,1
Holling D.,Technische Universität München,Munich,Germany,2016-12-05,Failure Models for Testing Continuous Controllers,48.1371079,11.5753822,2
Liu Y.,North University of China,Taiyuan,China,2016-12-01,A study on calibration-compensation method for accelerometer,37.870009,112.5452739,1
Ren L.,School of Engineering and Built Environment,Southport,Australia,2016-12-01,Evaluation of roundabout capacity models: An empirical case study,-27.9687807,153.4066696,4
Haramaki T.,Oita University,Oita,Japan,2016-12-16,An Engineering Education Support System Using Projection-Based AR,33.2393864,131.6096524,1
Bouckovalas G.D.,National Technical University of Athens (NTUA),Athens,Greece,2016-12-01,Ground response at liquefied sites: seismic isolation or amplification?,37.9755648,23.7348324,2
Liu P.,State Key Laboratory of Industrial Control Technology,Hangzhou,China,2016-12-01,A novel fast dynamic optimization approach for complex multivariable chemical process systems,30.2489634,120.2052342,1
Liu X.,University of Science and Technology of China,Hefei,China,2016-12-09,Highway Vehicle Counting in Compressed Domain,31.8665676,117.281428,1
Sánchez M.,College of Engineering,College Station,United States,2016-12-01,Fully coupled thermo-hydro-mechanical double-porosity formulation for unsaturated soils,30.6183939,-96.3455991,0
Quicken S.,Universiteit Maastricht,Maastricht,Netherlands,2016-12-01,Application of an Adaptive Polynomial Chaos Expansion on Computationally Expensive Three-Dimensional Cardiovascular Models for Uncertainty Quantification and Sensitivity Analysis,50.8512438,5.6909768,2
Dobler R.,Universidade Federal do Rio Grande do Sul,Porto Alegre,Brazil,2016-12-12,A software fault injector to validate implementations of a safety communication protocol,-30.0324999,-51.2303767,9
Trapp J.,Queensland University of Technology,Brisbane,Australia,2016-12-01,"Web of Science, Scopus, and Google Scholar citation rates: a case study of medical physics and biomedical engineering: what gets cited and what doesn’t?",-27.4689682,153.0234991,4
Gao P.,Xi'an Jiaotong University,Xi'an,China,2016-12-10,Radiometric calibration of tempospatially modulated polarization interference imaging spectrometer,34.261004,108.9423363,1
Kanda H.,University of Hyogo,Kobe,Japan,2016-12-14,Interface Optoelectronics Engineering for Mechanically Stacked Tandem Solar Cells Based on Perovskite and Silicon,34.6932379,135.1943764,1
Endo A.,"Institute of Agrobiological Sciences, NARO",Tsukuba,Japan,2016-12-01,Efficient targeted mutagenesis of rice and tobacco genomes using Cpf1 from Francisella novicida,36.0833265,140.077279,1
Su M.T.,Universiti Malaya,Kuala Lumpur,Malaysia,2016-12-01,Usage-based chunking of Software Architecture information to assist information finding,3.1516964,101.6942371,8
Sharifironizi M.,College of Engineering,Notre Dame,United States,2016-12-30,"Thermodynamic studies of zippeite, a uranyl sulfate common in mine wastes",41.70456775,-86.23822026017265,0
Zhang Y.,Changsha University of Science and Technology,Changsha,China,2016-12-01,Reasonable construction procedure and method of the cast-in-place RC arch rib with arch centering,28.1450774,113.2384362,1
Borgolov A.V.,"National Research Centre ""Kurchatov Institute""",Moscow,Russian Federation,2016-12-01,Mathematical modeling of triglyceride transesterification through enzymatic catalysis in a continuous flow bioreactor,55.625578,37.6063916,2
Rienzo A.,Universidad de Valparaiso,Valparaiso,Chile,2016-12-08,Analysis and repository of services telemedicine in Chile (2014-2015),-32.5976089,-70.8529753,10
Winoto P.,Wenzhou-Kean University,Wenzhou,China,2016-12-30,The development of a Kinect-based online socio-meter for users with social and communication skill impairments: A computational sensing approach,27.9963899,120.695345,1
Su H.,Chongqing Institute of Green and Intelligent Technology,Chongqing,China,2016-12-20,Metabolic engineering of Corynebacterium crenatium for enhancing production of higher alcohols,30.05518,107.8748712,1
Hui H.,China Electric Power Research Institute,Beijing,China,2016-12-09,Identification of active distribution network island based on graph theory,40.190632,116.412144,1
Balkrishan D.,Indian Institute of Technology Bombay,Mumbai,India,2016-12-07,Making and breaking the user-usage model: Whatsapp adoption amongst emergent users in India,19.08157715,72.88662753964906,3
Quintana J.,Instituto de Investigaciones Electricas,Cuernavaca,Mexico,2016-12-09,Sag-tension calculation program for power substations,18.93313205,-99.25995794657074,7
Fangrat J.,Institut Techniki Budowlanej Warsaw,Warsaw,Poland,2016-12-01,Combustability of building products versus fire safety,52.2319581,21.0067249,2
Kuo J.Y.,National Taipei University of Technology,Taipei,Taiwan,2016-12-30,People counting base on head and shoulder information,25.0375198,121.5636796,1
Cechanowicz L.,University of Southern California,Los Angeles,United States,2016-12-01,World Building and the Future of Media: A Case Study-Makoko 2036,34.0536909,-118.242766,0
Dysli C.,University Hospital Bern,Bern,Switzerland,2016-12-01,Effect of pharmacologically induced retinal degeneration on retinal autofluorescence lifetimes in mice,46.9484742,7.4521749,2
Wu Y.,National University of Singapore,Singapore City,Singapore,2016-12-31,Fabrication of dentin-like scaffolds through combined 3D printing and bio-mineralisation,1.2899175,103.8519072,8
Lähdesmäki T.,University of Jyväskylä,Jyvaskyla,Finland,2016-12-01,Scholarly discussion as engineering the meanings of a European cultural heritage,62.2417066,25.7495727,2
Esparza J.,Technische Universität München,Munich,Germany,2016-12-01,Model checking population protocols,48.1371079,11.5753822,2
Elfaham H.,Rheinisch-Westfälische Technische Hochschule Aachen,Aachen,Germany,2016-12-21,A modular benchmark for evaluating load distribution algorithms,50.776351,6.083862,2
Eun H.,Korea Advanced Institute of Science and Technology,Daejeon,South Korea,2016-12-01,Superpixel-guided adaptive image smoothing,36.3497007,127.3849016,1
Martinez-Vazquez P.,University of Birmingham,Birmingham,United Kingdom,2016-12-01,Wind-induced vibrations of structures using design spectra,52.4796992,-1.9026911,2
Mahmudul H.M.,Universiti Malaysia Pahang Al-Sultan Abdullah,Pekan,Malaysia,2016-12-07,Experimental investigation of the impact of using alcohol- biodiesel-diesel blending fuel on combustion of single cylinder CI engine,3.4895509,103.390396,8
Biddle W.,Colorado State University,Fort Collins,United States,2016-12-01,Modification of orthogonal tRNAs: Unexpected consequences for sense codon reassignment,40.5871782,-105.0770113,0
Carvalho F.,Universidade Federal de Itajubá,Itajuba,Brazil,2016-12-14,Comparative analysis of instruments measuring time-varying harmonics,-22.4238234,-45.4524156,9
Sjögren P.,Mälardalen University,Vasteras,Sweden,2016-12-27,The planning and documentation problem of emergent changes,59.6110992,16.5463679,2
Talai S.,Tshwane University of Technology,Pretoria,South Africa,2016-12-01,Experimentally validated structural vibration frequencies' prediction from frictional temperature signatures using numerical simulation: A case of laced cantilever beam-like structures,-25.7459277,28.1879101,11
Quang-Huy T.,"Vietnam National University, Hanoi",Hanoi,Viet Nam,2016-12-01,Integration of compressed sensing and frequency hopping techniques for ultrasound tomography,21.0283334,105.854041,1
Chen J.,University of Cambridge,Cambridge,United Kingdom,2016-12-16,Low-loss and high-bandwidth multimode polymer waveguide components using refractive index engineering,52.2055314,0.1186637,2
Kumar P.,Indian Institute of Technology Mandi,Mandi,India,2016-12-07,Effect of Sulfur Evaporation Rate on Screw Dislocation Driven Growth of MoS<inf>2</inf> with High Atomic Step Density,31.65166165,77.00925418842219,3
Chen W.,Southwest Petroleum University China,Chengdu,China,2016-12-01,Quantitative evaluation of reservoir water-flooding development effect based on index characteristic model,30.6598628,104.0633717,1
Mohyud-Din S.T.,HITEC University,Rawalpindi,Pakistan,2016-12-01,On exact solutions of modified KdV-ZK equation,33.5914237,73.0535122,3
Reuter M.A.,HZDR - Helmholtz-Zentrum Dresden-Rossendorf,Dresden,Germany,2016-12-01,Digitalizing the Circular Economy: Circular Economy Engineering Defined by the Metallurgical Internet of Things,51.0493286,13.7381437,2
Sarker B.,Friedrich-Alexander-Universität Erlangen-Nürnberg,Erlangen,Germany,2016-12-12,"Designing Porous Bone Tissue Engineering Scaffolds with Enhanced Mechanical Properties from Composite Hydrogels Composed of Modified Alginate, Gelatin, and Bioactive Glass",49.5891571,10.98120719922546,2
Owston H.,"University of Leeds, School of Medicine",Leeds,United Kingdom,2016-12-01,Do skeletal muscle MSCs in humans contribute to bone repair? A systematic review,53.7974185,-1.5437941,2
Do T.,Nazarbayev University,Astana,Kazakhstan,2016-12-14,Optimal control design for chaos suppression of PM synchronous motors,51.1159933,71.46770587485393,-1
Privat R.,Université de Lorraine,Nancy,France,2016-12-13,"Improving Students' Understanding of the Connections between the Concepts of Real-Gas Mixtures, Gas Ideal-Solutions, and Perfect-Gas Mixtures",48.6937223,6.1834097,2
Whitlow J.,KU School of Engineering,Lawrence,United States,2016-12-01,Bioactive materials: Definitions and application in tissue engineering and regeneration therapy,38.9719137,-95.2359403,0
Zhu G.,Research Institute of Petroleum Exploration and Development,Beijing,China,2016-12-01,Identification of polycyclic sulfides hexahydrodibenzothiophenes and their implications for heavy oil accumulation in ultra-deep strata in Tarim Basin,40.190632,116.412144,1
Yu A.C.,Stanford Engineering,Stanford,United States,2016-12-13,Scalable manufacturing of biomimetic moldable hydrogels for industrial applications,37.427467,-122.1702445,0
Reeve B.,Imperial College London,London,United Kingdom,2016-12-16,The Geobacillus Plasmid Set: A Modular Toolkit for Thermophile Engineering,51.5074456,-0.1277653,2
Guang C.,Beijing Jiaotong University,Beijing,China,2016-12-01,Methods and systems for high-temperature strain measurement of the main steam pipe of a boiler of a power plant while in service,40.190632,116.412144,1
Montag C.,Universität Ulm,Ulm,Germany,2016-12-01,Who dares to join a parabolic flight?,48.3984968,9.9912458,2
Kelly M.J.,Electrical Engineering Division,Cambridge,United Kingdom,2016-12-01,Lessons from technology development for energy and sustainability,52.2055314,0.1186637,2
Mahfouz M.M.A.,Helwan University,Helwan,Egypt,2016-12-08,The Institution of Engineering and Technology 2016,29.8500001,31.333333,2
Yamada S.,Tottori University,Tottori,Japan,2016-12-15,Statistical process control for OSS projects and optimal release policies,35.3555075,133.8678525,1
Oh G.W.,Pukyong National University,Busan,South Korea,2016-12-01,"Fabrication, characterization and determination of biological activities of poly(ε-caprolactone)/chitosan-caffeic acid composite fibrous mat for wound dressing application",35.1799528,129.0752365,1
Wei H.,China Electric Power Research Institution,Beijing,China,2016-12-09,A method for similarity analysis of power system state,40.190632,116.412144,1
Christ O.,Fachhochschule Nordwestschweiz FHNW,Windisch,Switzerland,2016-12-19,Towards active lower limb prosthetic systems: Design issues and solutions,47.4793472,8.2179918,2
Cristescu G.C.,University Politehnica of Bucharest,Bucharest,Romania,2016-12-09,Implementing an AAA-RADIUS solution based on legacy authentication protocols,44.4361414,26.1027202,2
Kitchen S.G.,David Geffen School of Medicine at UCLA,Los Angeles,United States,2016-12-01,Engineering HIV-specific immunity with chimeric antigen receptors,34.0536909,-118.242766,0
Duque-Fernandez A.,CHU de Québec-Université Laval,Quebec,Canada,2016-12-01,A 3D-psoriatic skin model for dermatological testing: The impact of culture conditions,53.78701075,-73.31569895762317,12
Kryshchuk M.,National Technical University of Ukraine “Igor Sikorsky Kyiv Polytechnic Institute”,Kyiv,Ukraine,2016-12-01,Iterative Method for Solving a System of Linear Equations,50.4500336,30.5241361,2
Oliveira M.J.,Universidade do Porto,Porto,Portugal,2016-12-07,Support system for learning mathematics in engineering higher education programmes: The case of the 'Mathematics Digital Practice Office',41.1494512,-8.6107884,2
Hashim A.,Universiti Tun Hussein Onn Malaysia,Batu Pahat,Malaysia,2016-12-07,Effects of Biofuel and Variant Ambient Pressure on FlameDevelopment and Emissions of Gasoline Engine.,1.933333,103.0,8
Gallardo G.A.,École Normale Supérieure de Lyon,Lyon,France,2016-12-05,Performance modeling of virtual switching systems,45.7578137,4.8320114,2
Jin L.,Carnegie Mellon University,Pittsburgh,United States,2016-12-01,Integration-Enhanced Zhang Neural Network for Real-Time-Varying Matrix Inversion in the Presence of Various Kinds of Noises,40.4416941,-79.9900861,0
Pastorino L.,"Dipartimento di Informatica, Bioingegneria, Robotica e Ingegneria dei Sistemi",Genoa,Italy,2016-12-01,Towards the Fabrication of Polyelectrolyte-Based Nanocapsules for Bio-Medical Applications,44.40726,8.9338624,2
An Y.Z.,Universiti Sains Malaysia,Minden,Malaysia,2016-12-07,Reviews on Security Issues and Challenges in Cloud Computing,5.3624194,100.30365245565372,8
Li Z.,Tsinghua University,Beijing,China,2016-12-01,Scale adaptive simulation based on a k-kL two-equation turbulence model,40.190632,116.412144,1
Jalali S.,Amirkabir University of Technology,Tehran,Iran,2016-12-10,Computer-based evaluation of design methods used for a steel plate shear wall system,35.6892523,51.3896004,2
Zhu Z.,Ocean College Zhejiang University,Zhoushan,China,2016-12-28,"Hydrogeological-hydrogeochemical characteristics and hydrocarbon preservation conditions of the Qianbei Depression and its periphery, Upper Yangtze Block",29.9873344,122.2030363,1
Baig M.,Indian Institute of Technology Delhi,New Delhi,India,2016-12-01,Engineering droplet navigation through tertiary-junction microchannels,28.64308585,77.21926705734865,3
Luo Y.,Tianjin University,Tianjin,China,2016-12-01,Synthesis and optimization of nonsharp complex distillation sequences based on weighted directed digraphs method,39.3032619,117.4163641,1
Nader N.,National Institute of Standards and Technology,Gaithersburg,United States,2016-12-16,Spectral engineering of frequency combs using deposited waveguides,39.1399187,-77.1929215,0
Chen B.,Shenzhen Institute of Advanced Technology,Shenzhen,China,2016-12-14,Integration of a stereo matching algorithm on chip for real-time 3-D sensing,22.5445741,114.0545429,1
Votteler J.,University of Utah School of Medicine,Salt Lake City,United States,2016-12-08,Designed proteins induce the formation of nanocage-containing extracellular vesicles,40.7596198,-111.886797,-1
Jia J.X.,Chengdu University of Technology,Chengdu,China,2016-12-01,Study of seismic wave reflection characteristics of unfavorable geological bodies in phyllite tunnel,30.6598628,104.0633717,1
Reimanis D.,Norm Asbjornson College of Engineering,Bozeman,United States,2016-12-06,Towards Assessing the Technical Debt of Undesired Software Behaviors in Design Patterns,45.6794293,-111.044047,-1
Agostinetti P.,Università degli Studi di Padova,Padua,Italy,2016-12-17,Detailed design optimization of the MITICA negative ion accelerator in view of the ITER NBI,45.4077172,11.8734455,2
Milan H.F.M.,Department of Biological and Environmental Engineering,Ithaca,United States,2016-12-01,Tetrahedral node for Transmission-Line Modeling (TLM) applied to Bio-heat Transfer,42.4374175,-76.54837235139263,0
Eshleman K.,University of Maryland Center for Environmental Science,Cambridge,United States,2016-12-01,Declining nitrate-N yields in the Upper Potomac River Basin: What is really driving progress under the Chesapeake Bay restoration?,42.3656347,-71.1040018,0
Lu C.,National Chiao Tung University,Hsinchu,Taiwan,2016-12-27,Disocclusion compensation using adaptive template matching for view synthesis,24.8066333,120.9686833,1
Goldstein T.,Donald and Barbara Zucker School of Medicine at Hofstra/Northwell,Hempstead,United States,2016-12-01,Feasibility of bioprinting with a modified desktop 3d printer,40.6736812,-73.6190736,0
Ghanaei Z.,Ferdowsi University of Mashhad,Mashhad,Iran,2016-12-29,Automatic graph-based method for classification of retinal vascular bifurcations and crossovers,36.2974945,59.6059232,2
Ozturk M.,Gallogly College of Engineering,Norman,United States,2016-12-01,Reynolds stresses and hemolysis in turbulent flow examined by threshold analysis,35.2225717,-97.4394816,0
Yang Y.,Wuhan University,Wuhan,China,2016-12-09,Analysis of energy efficiency measurement scheme for flexible HVDC transmission system,30.5951051,114.2999353,1
Cutucache C.E.,University of Nebraska Omaha,Omaha,United States,2016-12-01,NE STEM 4U: an out-of-school time academic program to improve achievement of socioeconomically disadvantaged youth in STEM areas,41.2587459,-95.9383758,0
Wohlrab R.,Chalmers University of Technology,Gothenburg,Sweden,2016-12-02,Collaborative Traceability Management: Challenges and Opportunities,57.7072326,11.9670171,2
Otani T.,Central Research Institute of Electric Power Industry,Tokyo,Japan,2016-12-22,IEC 61850-based volt-var control specifications for unified use in multiple power utilities,35.6768601,139.7638947,1
Mansuripur T.S.,Harvard John A. Paulson School of Engineering and Applied Sciences,Cambridge,United States,2016-12-02,Single-mode instability in standing-wave lasers: The quantum cascade laser as a self-pumped parametric oscillator,42.3656347,-71.1040018,0
Cho C.S.,Seoul National University,Seoul,South Korea,2016-12-01,Three-dimensional printing in tissue engineering and regenerative medicine,37.5666791,126.9782914,1
Abduo M.,Egyptian Petroleum Research Institute,Cairo,Egypt,2016-12-01,Comparative study of using Water-Based mud containing Multiwall Carbon Nanotubes versus Oil-Based mud in HPHT fields,30.0443879,31.2357257,2
Wan H.,Beihang University,Beijing,China,2016-12-01,Closed form solution of stress intensity factors for cracks emanating from surface semi-spherical cavity in finite body with energy release rate method,40.190632,116.412144,1
Mohd Nor M.K.,Universiti Tun Hussein Onn Malaysia,Batu Pahat,Malaysia,2016-12-07,Development of Vehicle Model Test for Road Loading Analysis of Sedan Model,1.933333,103.0,8
Valente M.,Politecnico di Milano,Milan,Italy,2016-12-01,Dissipative devices for earthquake resistant composite steel structures: bolted versus welded solution,45.4641943,9.1896346,2
Huang X.,University of Calgary,Calgary,Canada,2016-12-01,A simple dilation-recompaction model for hydraulic fracturing,51.0456064,-114.057541,13
Rupp M.,University of Central Florida,Orlando,United States,2016-12-01,Driving under the influence of distraction: Examining dissociations between risk perception and engagement in distracted driving,28.5421109,-81.3790304,0
Jewett A.,National Center for Injury Prevention and Control,Atlanta,United States,2016-12-01,"Parental perceptions of teen driving: Restrictions, worry and influence",33.7489924,-84.3902644,0
Schachner L.,Northwestern University,Evanston,United States,2016-12-20,Characterization of chain pairing variants of bispecific IgG Expressed in a single host cell by high-resolution native and denaturing mass spectrometry,42.0470043,-87.6846053,0
Pitis C.,Powertech Lab Inc,Unknown,United Kingdom,2016-12-05,The impact of essentials of application engineering on conservation and energy efficiency projects,53.16917060617699,-4.1000956517182905,2
Labbafinejad Y.,School of Medicine (IUMS),Tehran,Iran,2016-12-01,Ergonomic Risk Factors and Their Association with Lower Back and Neck Pain among Pharmaceutical Employees in Iran,35.6892523,51.3896004,2
Li B.,Drexel University College of Engineering,Philadelphia,United States,2016-12-15,Assemblies of Microfluidic Channels and Micropillars Facilitate Sensitive and Compliant Tactile Sensing,39.9527237,-75.1635262,0
Kapur R.A.,Gloucestershire Hospitals NHS Foundation Trust,Cheltenham,United Kingdom,2016-12-08,Acoustic emission in orthopaedics: A state of the art review,51.8995685,-2.0711559,2
Liu Y.,Xidian University,Xi'an,China,2016-12-01,Electromagnetic-circuit co-simulation of very fast transient overvoltage in gas-insulated switches,34.261004,108.9423363,1
Mi R.,Fudan University,Shanghai,China,2016-12-28,Structure and properties of various hybrids fabricated by silk nanofibrils and nanohydroxyapatite,31.2312707,121.4700152,1
Ogila W.A.M.,College of Science,Cairo,Egypt,2016-12-01,The impact of natural ornamental limestone dust on swelling characteristics of high expansive soils,30.0443879,31.2357257,2
Ganguly S.,Purdue University,West Lafayette,United States,2016-12-01,Evaluating Spintronic Devices Using the Modular Approach,40.4258686,-86.9080655,0
Dijkstra A.,Carbougnères,St Eutrope-de-Born,France,2016-12-01,Questions begging for answers (Part III) – Interesterification,44.57919765,0.7055688481549822,2
Meng Z.,National University of Defense Technology China,Changsha,China,2016-12-01,A hypersonic aeroheating calculation method based on inviscid outer edge of boundary layer parameters,28.1450774,113.2384362,1
Zhang X.,Dalian University of Technology,Dalian,China,2016-12-01,Robust topology optimization for dynamic compliance minimization under uncertain harmonic excitations with inhomogeneous eigenvalue analysis,39.740278,122.255833,1
Biedermann T.,Kinderspital Zürich,Zurich,Switzerland,2016-12-01,Myelinated and unmyelinated nerve fibers reinnervate tissue-engineered dermo-epidermal human skin analogs in an in vivo model,47.3744489,8.5410422,2
Flores M.M.M.,Universidad Autónoma de Nuevo León,San Nicolas de los Garza,Mexico,2016-12-22,Implementation of control algorithms in a climatic chamber,25.7558021,-100.289648,14
Bertels F.G.A.,"Faculteit Luchtvaart- en Ruimtevaarttechniek, TU Delft",Delft,Netherlands,2016-12-01,Impact of pulsed jet actuators on aircraft mass and fuel consumption,52.0114017,4.35839,2
Han Y.S.,North University of China,Taiyuan,China,2016-12-01,A comparative study on the effect of dynamic compaction by flat bottom hammer and special shaped hammer,37.870009,112.5452739,1
Robeer M.,Universiteit Utrecht,Utrecht,Netherlands,2016-12-02,Automated Extraction of Conceptual Models from User Stories via NLP,52.0907006,5.1215634,2
Lu Z.,Shanghai Institute of Technical Physics Chinese Academy of Sciences,Shanghai,China,2016-12-14,A gait recognition based on link model of infrared thermal imaging,31.2312707,121.4700152,1
Idu M.,University Politehnica of Bucharest,Bucharest,Romania,2016-12-14,Optimized PIN devices by simulation,44.4361414,26.1027202,2
Guo C.X.,Southwest University,Chongqing,China,2016-12-27,Recent Advances in Soft Materials to Build and Functionalize Hard Structures for Electrochemical Energy Storage and In situ Electrochemical Molecular Biosensing,30.05518,107.8748712,1
Laut J.,NYU Tandon School of Engineering,New York,United States,2016-12-01,The Present and Future of Robotic Technology in Rehabilitation,40.7127281,-74.0060152,0
Gharghabi S.,Amirkabir University of Technology,Tehran,Iran,2016-12-29,Improving person recognition by weight adaptation of soft biometrics,35.6892523,51.3896004,2
Moraco A.,Universidade de São Paulo,Sao Paulo,Brazil,2016-12-08,Robustness analysis of extended participation factors to detect voltage fluctuations in distributed synchronous generation systems,-23.5506507,-46.6333824,9
Alnaeli S.M.,University of Wisconsin-Fox Valley,Menasha,United States,2016-12-07,On the evolution of mobile computing software systems and C/C++ vulnerable code: Empirical investigation,44.2022293,-88.4465361,0
Afshari H.,University of Manitoba,Winnipeg,Canada,2016-12-01,Design optimization for sustainable products under users' preference changes,49.8955367,-97.1384584,0
Zhou X.,School of Life Sciences,Lanzhou,China,2016-12-01,Proteins of well-defined structures can be designed without backbone readjustment by a statistical model,36.474436,103.733224,1
Machaca Arceda V.E.,Universidad Nacional de San Agustin de Arequipa,Arequipa,Peru,2016-12-09,Fast Face Detection in Violent Video Scenes,-16.3988667,-71.5369607,-1
Farahi N.,Waterloo Institute for Nanotechnology,Waterloo,Canada,2016-12-21,Nano- and Microstructure Engineering: An Effective Method for Creating High Efficiency Magnesium Silicide Based Thermoelectrics,43.4652699,-80.5222961,0
Soong Y.,"National Energy Technology Laboratory, Pittsburgh",Pittsburgh,United States,2016-12-01,CO<inf>2</inf>/brine/rock interactions in Lower Tuscaloosa formation,40.4416941,-79.9900861,0
Dimitrakopoulos E.G.,Hong Kong University of Science and Technology,Hong Kong,Hong Kong,2016-12-01,Closed-form rocking overturning conditions for a family of pulse ground motions,22.2793278,114.1628131,1
Yin W.,Liaoning Technical University,Fuxin,China,2016-12-15,Lag time study on nonlinear creep buckling of the isolated coal pillar,42.330278,122.015278,1
Wang Z.,Shanghai Institute of Optics and Fine Mechanics Chinese Academy of Sciences,Shanghai,China,2016-12-01,Flatness measurement of pitch lap for large continuous polisher,31.2312707,121.4700152,1
Cubrinovski M.,University of Canterbury,Christchurch,New Zealand,2016-12-01,Lateral spreading: Evidence and interpretation from the 2010–2011 Christchurch earthquakes,-43.530955,172.6364343,5
Raheel S.,American University of Science &amp; Technology,Beirut,Lebanon,2016-12-07,Improving the user experience using an intelligent Adaptive User Interface in mobile applications,33.88922645,35.50255852895232,2
Razali M.,Universiti Malaysia Pahang Al-Sultan Abdullah,Pekan,Malaysia,2016-12-07,Mathematical Modelling of Mixed-Model Assembly Line Balancing Problem with Resources Constraints,3.4895509,103.390396,8
Fu N.,West China School/Hospital of Stomatology Sichuan University,Chengdu,China,2016-12-01,PCL-PEG-PCL film promotes cartilage regeneration in vivo,30.6598628,104.0633717,1
Duan Q.,North China Electric Power University,Beijing,China,2016-12-22,Design and simulation of multi-sensor insertion flowmeter adaptive to non-uniform velocity profiles,40.190632,116.412144,1
Ansari S.M.,Savitribai Phule Pune University,Pune,India,2016-12-12,Size and Chemistry Controlled Cobalt-Ferrite Nanoparticles and Their Anti-proliferative Effect against the MCF-7 Breast Cancer Cells,18.5213738,73.8545071,3
Sakiragaoglu O.,Griffith Health,Brisbane,Australia,2016-12-01,Inhibition of Telomerase Activity Using an EGFP-Intron Splicing System Encoding Multiple RNAi Sequences,-27.4689682,153.0234991,4
Murata K.T.,National Institute of Information and Communications Technology,Koganei,Japan,2016-12-01,A high-speed data transfer protocol for geostationary orbit satellites,35.7041083,139.5106759,1
Dragos-Lucian M.,Universitatea Tehnica Gh. Asachi din IasI,Iasi,Romania,2016-12-09,Photovoltaic power plant on the ENERED research platform of the electrical engineering faculty of Iasi,47.1615598,27.5837814,2
Barati-Harooni A.,"Islamic Azad University, Ahvaz branch",Ahvaz,Iran,2016-12-01,A model for estimation of permeability and free flowing porosity,31.3230637,48.67932,2
Wang C.C.N.,Asia University,Taichung,Taiwan,2016-12-16,A Comparison Study of Reverse Engineering Gene Regulatory Network Modeling,24.163162,120.6478282,1
Zhang P.,State Power Economic Research Institute,Beijing,China,2016-12-09,Optimal allocation method of dynamic VAR compensation based on a novel transient voltage stability index,40.190632,116.412144,1
Blümel C.,Humboldt-Universität zu Berlin,Berlin,Germany,2016-12-01,Enrolling the Toggle Switch: Visionary Claims and the Capability of Modeling Objects in the Disciplinary Formation of Synthetic Biology,52.510885,13.3989367,2
Gu L.l.,Nagoya Institute of Technology,Nagoya,Japan,2016-12-01,Mechanical behaviour of piled-raft foundations subjected to high-speed train loading,35.1851045,136.8998438,1
Wang J.,Curtin University,Perth,Australia,2016-12-01,Developing and evaluating a framework of total constraint management for improving workflow in liquefied natural gas construction,-31.9558933,115.8605855,15
Herbrechtsmeier S.,Universität Bielefeld,Bielefeld,Germany,2016-12-16,AMiRo: A modular &amp; customizable open-source mini robot platform,52.0191005,8.531007,2
Mayhew D.R.,Traffic Injury Research Foundation,Ottawa,Canada,2016-12-01,Better integrating driver education and training within a new graduated driver licensing framework in North America,45.4208777,-75.6901106,0
Binns I.C.,The University of North Carolina at Charlotte,Charlotte,United States,2016-12-01,Student Perceptions of a Summer Ventures in Science and Mathematics Camp Experience,35.2272086,-80.8430827,0
Dellgren C.,Odense Universitetshospital,Odense,Denmark,2016-12-15,Low constitutive cell surface expression of HLA-B is caused by a posttranslational mechanism involving Glu<sup>180</sup> and Arg<sup>239</sup>,55.3997225,10.3852104,2
Giȩtka T.,Bydgoszcz University of Science and Technology,Bydgoszcz,Poland,2016-12-01,Modeling of Railway Wheels Made of Austempered Ductile Iron,53.12971265,18.02944875572119,2
Zhao J.,Shandong University,Jinan,China,2016-12-09,Optimization of uncertainty load restoration strategy based on assessment of Conditional Value-at-Risk,36.6519754,117.1138479,1
Thomas A.,Boston University College of Engineering,Boston,United States,2016-12-16,Engineering frequency-correlated two-photon states using parametric down-conversion in integrated-optic nonlinear waveguide,42.3554334,-71.060511,0
Tziavos N.I.,University of Birmingham,Birmingham,United Kingdom,2016-12-01,Grouted connections on offshore wind turbines: A review,52.4796992,-1.9026911,2
Lee S.,"University of California, Los Angeles",Los Angeles,United States,2016-12-01,Calvarial Defect Healing Induced by Small Molecule Smoothened Agonist,34.0536909,-118.242766,0
Li Z.J.,Capital Normal University,Beijing,China,2016-12-01,Fungal endophytes of South China blueberry (Vaccinium dunalianum var. urophyllum),40.190632,116.412144,1
Engelsen N.J.,Stanford University,Stanford,United States,2016-12-16,Engineering spin-squeezed states for quantum-enhanced atom interferometry,37.427467,-122.1702445,0
Lei L.,Linköpings Universitet,Linkoping,Sweden,2016-12-01,On Power Minimization for Non-orthogonal Multiple Access (NOMA),58.4098135,15.6245252,2
Lugo-Vega C.S.,Western University,London,Canada,2016-12-15,Energy efficiency limits in Photo-CREC-Air photocatalytic reactors,42.9832406,-81.243372,0
Kaneko N.,Tokyo University of Science,Tokyo,Japan,2016-12-27,Proactive secret sharing scheme suitable for asymmetric secret sharing scheme,35.6768601,139.7638947,1
Jonas E.,Karolinska Universitetssjukhuset,Stockholm,Sweden,2016-12-01,Transplantation of tissue-engineered cell sheets for stricture prevention after endoscopic submucosal dissection of the oesophagus,59.3251172,18.0710935,2
Papenfuss A.,Deutsches Zentrum für Luft- und Raumfahrt (DLR),Koln,Germany,2016-12-07,Head up only - A design concept to enable multiple remote tower operations,50.938361,6.959974,2
Diaz S.,Pontificia Universidad Católica de Chile,Santiago,Chile,2016-12-08,Intelligent control applications on a binary distillation column,-33.4377756,-70.6504502,10
Wang Y.,Nanjing University of Science and Technology,Nanjing,China,2016-12-14,Measure of invulnerability for command and control network based on network invulnerability entropy,32.0438284,118.7788631,1
Chong D.,Shanghai University,Shanghai,China,2016-12-01,Modeling and validation of energy consumption in asphalt mixture production,31.2312707,121.4700152,1
Spoletini P.,Kennesaw State University,Kennesaw,United States,2016-12-02,Empowering Requirements Elicitation Interviews with Vocal and Biofeedback Analysis,34.0234337,-84.6154897,0
Rizza G.,CNRS Centre National de la Recherche Scientifique,Paris,France,2016-12-07,Plasmonic properties of ion-shaped nanoparticles,48.8588897,2.3200410217200766,2
Cardeira J.,Universidade do Algarve,Faro,Portugal,2016-12-19,Quantitative assessment of the regenerative and mineralogenic performances of the zebrafish caudal fin,37.0162727,-7.9351771,2
Özvan A.,Van Yüzüncü Yıl Üniversitesi,Van,Turkey,2016-12-01,Geotechnical handicap of travertine with different lithotype levels as foundation material,38.3249599,43.6589825,2
Senin M.S.,Universiti Tun Hussein Onn Malaysia,Batu Pahat,Malaysia,2016-12-07,Properties of Cement Mortar Containing Rubber Ash as Sand Replacement,1.933333,103.0,8
João I.M.,Instituto Superior de Engenharia de Lisboa,Lisbon,Portugal,2016-12-07,Designing experiments with Aspen HYSYS simulation to improve distillation systems: Insights from a chemical engineering course,38.7077507,-9.1365919,2
Khairani A.Z.,Universiti Sains Malaysia,Minden,Malaysia,2016-12-12,Assessing Urban and Rural Teachers' Competencies in STEM Integrated Education in Malaysia,5.3624194,100.30365245565372,8
Lee K.,Soonchunhyang University,Asan,South Korea,2016-12-21,A brief review on JTAG security,36.7899498,127.0026769,1
Glauner P.,University of Luxembourg,Esch-sur-Alzette,Luxembourg,2016-12-06,Neighborhood features help detecting non-technical losses in big data sets,49.4959628,5.9850306,2
Striletchi C.,Universitatea Tehnica din Cluj-Napoca,Cluj Napoca,Romania,2016-12-09,A cross-platform solution for software plagiarism detection,46.769379,23.5899542,2
Kim Y.S.,Yonsei University,Seoul,South Korea,2016-12-01,Highly conductive and hydrated PEG-based hydrogels for the potential application of a tissue engineering scaffold,37.5666791,126.9782914,1
Frank I.W.,"Sandia National Laboratories, New Mexico",Albuquerque,United States,2016-12-16,Entangled photon generation in lithium niobate microdisk resonators through spontaneous parametric down conversion,35.0841034,-106.650985,0
Kuznetsov V.,Northern (Arctic) Federal University,Arkhangelsk,Russian Federation,2016-12-01,Results of operation and current safety performance of nuclear facilities located in the Russian Federation,64.543022,40.537121,2
Neupane K.,University of Technology Sydney,Sydney,Australia,2016-12-01,“Fly ash and GGBFS based powder-activated geopolymer binders: A viable sustainable alternative of portland cement in concrete industry”,-33.8698439,151.2082848,4
Vaquette C.,Queensland University of Technology,Brisbane,Australia,2016-12-01,Current Developments in 3D Printing for Craniofacial Regeneration,-27.4689682,153.0234991,4
Zhang Z.,Zhejiang University of Technology,Hangzhou,China,2016-12-01,Rice Husk Ash-Derived Silica Nanofluids: Synthesis and Stability Study,30.2489634,120.2052342,1
Melander E.,Uppsala Universitet,Uppsala,Sweden,2016-12-01,More than meets the eye - infrared cameras in open-ended university thermodynamics labs,59.8586126,17.6387436,2
Sampson J.,Atkins Global,London,United Kingdom,2016-12-01,British Dam Society young engineers’ forum,51.5074456,-0.1277653,2
Li S.,Yellow River Conservancy Commission,Zhengzhou,China,2016-12-01,Applying a statistical method to streamflow reduction caused by underground mining for coal in the Kuye River basin,34.7533392,113.6599983,1
Yu C.,Yanshan University,Qinhuangdao,China,2016-12-01,VRP-GMRES(m) iteration algorithm for fast multipole boundary element method,39.9395724,119.5894129,1
Paino I.M.M.,Universidade de São Paulo,Sao Paulo,Brazil,2016-12-07,Zinc Oxide Flower-Like Nanostructures That Exhibit Enhanced Toxicology Effects in Cancer Cells,-23.5506507,-46.6333824,9
Petan L.,Univerza v Ljubljani,Ljubljana,Slovenia,2016-12-15,Influence of laser shock peening pulse density and spot size on the surface integrity of X2NiCoMo18-9-5 maraging steel,46.0500268,14.5069289,2
Kanter J.,Feature Labs,Boston,United States,2016-12-22,"Label, segment, featurize: A cross domain framework for prediction engineering",42.3554334,-71.060511,0
Nandy S.,McKelvey School of Engineering,St. Louis,United States,2016-12-01,Classification and analysis of human ovarian tissue using full field optical coherence tomography,38.6280278,-90.1910154,0
Holland S.C.,Oklahoma State University,Stillwater,United States,2016-12-01,Impacts of genetically engineered alterations in carbon sink pathways on photosynthetic performance,36.1156306,-97.0585717,0
Sanudin R.,Universiti Tun Hussein Onn Malaysia,Batu Pahat,Malaysia,2016-12-07,Mutual Coupling Compensation on Spectral-based DOA Algorithm,1.933333,103.0,8
Griffiths L.,University of Bristol,Bristol,United Kingdom,2016-12-01,A pulse size estimation method for reduced-order models,51.4538022,-2.5972985,2
Clark E.L.,Bowdoin College,Brunswick,United States,2016-12-16,Development of Rare Bacterial Monosaccharide Analogs for Metabolic Glycan Labeling in Pathogenic Bacteria,34.0718195,-78.1914215,0
Tong W.,Shenyang University of Technology,Shenyang,China,2016-12-19,Iron Loss Analysis of Permanent Magnet Synchronous Motor with an Amorphous Stator Core,41.8026095,123.4279105,1
Devaraju A.,Anna University,Chennai,India,2016-12-01,A review on important factors affecting dry sliding friction,13.0836939,80.270186,3
Fang D.Q.,Xi'an Jiaotong University,Xi'an,China,2016-12-07,Band gap engineering of ZnSnN<inf>2</inf>/ZnO (001) short-period superlattices via built-in electric field,34.261004,108.9423363,1
Dorfman A.S.,"University of Michigan, Ann Arbor",Ann Arbor,United States,2016-12-05,Applications of mathematical heat transfer and fluid flow models in engineering and medicine,42.2813722,-83.7484616,0
Zhen Z.,State Grid Corporation of China,Beijing,China,2016-12-27,Research in the vertical method for entering the electric field of live working on UHV DC transmission lines,40.190632,116.412144,1
Adak S.,"Indian Institute of Engineering Science and Technology, Shibpur",Howrah,India,2016-12-01,Impact of gate engineering in enhancement mode n<sup>++</sup>GaN/InAlN/AlN/GaN HEMTs,22.5736296,88.3251045,3
Shin D.,Chung-Ang University,Seoul,South Korea,2016-12-01,A Centrifugal Force-Based Configuration-Independent High-Torque-Density Passive Brake for Human-Friendly Robots,37.5666791,126.9782914,1
Debene A.,HIPI Ziviltechniker GmbH,Unknown,Austria,2016-12-01,Experiences with the construction of near-natural ramps in adherence with the WRRL: the example of the Ischl River,46.6207107,13.8637655,2
Zhu X.,Wuhan University,Wuhan,China,2016-12-14,Reactive compensation for AC electric arc furnace considering power quality constraints,30.5951051,114.2999353,1
Lee D.J.,Nanosystems Initiative Munich,Munich,Germany,2016-12-28,Tumoral gene silencing by receptor-targeted combinatorial siRNA polyplexes,48.1371079,11.5753822,2
Atashin A.,Ferdowsi University of Mashhad,Mashhad,Iran,2016-12-29,Training LDCRF model on unsegmented sequences using connectionist temporal classification,36.2974945,59.6059232,2
Masoum A.S.,Curtin University,Perth,Australia,2016-12-01,Combined Online and Delayed Coordinated Charging of Plug-In Electric Vehicles Considering Wind and Rooftop PV Generations,-31.9558933,115.8605855,15
Huang D.,Shanghai University,Shanghai,China,2016-12-15,Exponential trigonometric series approach to free response of parametric vibration,31.2312707,121.4700152,1
Yang J.,Korea Advanced Institute of Science and Technology,Daejeon,South Korea,2016-12-01,Serving a video into an image carousel: system design and implementation,36.3497007,127.3849016,1
Kiflu H.,"University of South Florida, Tampa",Tampa,United States,2016-12-01,Improving resistivity survey resolution at sites with limited spatial extent using buried electrode arrays,27.9477595,-82.458444,0
Brown M.,University of Missouri,Columbia,United States,2016-12-01,"Injection-induced seismicity in Carbon and Emery Counties, central Utah",34.0003117,-81.0331309,0
Munukuntla S.,University of New Orleans Dr. Robert A. Savoie College of Engineering,New Orleans,United States,2016-12-16,Sensitivity analysis of synchronous generators for real-time simulations,29.9759983,-90.0782127,0
Yuan D.,State Key Laboratory of Physical Chemistry of Solid Surfaces,Xiamen,China,2016-12-01,SECM evaluations of the crystal-facet-correlated photocatalytic activity of hematites for water splitting,24.5438732,118.0768065,1
Qazi M.A.,Tuskegee University,Tuskegee,United States,2016-12-01,A mentoring bridge model to prepare students with disabilities in the stem fields at Tuskegee university,32.4240535,-85.6908715,0
Liu J.,Hohai University,Nanjing,China,2016-12-15,How well can the subsurface storage–discharge relation be interpreted and predicted using the geometric factors in headwater areas?,32.0438284,118.7788631,1
Abudena M.,International Islamic University Malaysia,Kuala Lumpur,Malaysia,2016-12-29,Unicode Encryption and Its Role in Facilitating Writing Quran Using the Computer,3.1516964,101.6942371,8
Barabas F.M.,Consejo Nacional de Investigaciones Científicas y Técnicas,Buenos Aires,Argentina,2016-12-01,Note: Tormenta: An open source Python-powered control software for camera based optical microscopy,-34.6083696,-58.4440583,16
Alaci S.,Universitatea Stefan cel Mare din Suceava,Suceava,Romania,2016-12-01,Method and device for dynamic modelling of rubbery materials applied to human soft tissues. Part I: Determination of mechanical characteristics and dynamic model proposal,47.53265345,25.834593917414125,2
Smirani R.,Bioingénierie Tissulaire,Bordeaux,France,2016-12-01,Feasibility study of biofabricated graft for treating periodontal recession,44.841225,-0.5800364,2
Zhang X.,Tianjin Architecture Design Institute,Tianjin,China,2016-12-14,Exception analysis and treatment of operation data in green building,39.3032619,117.4163641,1
Bornscheuer U.T.,Universität Greifswald,Greifswald,Germany,2016-12-14,Chemical biology: A radical change in enzyme catalysis,54.095791,13.3815238,2
Hill B.,Imperial College London,London,United Kingdom,2016-12-01,Obsolescence and Innovation in Economic Statistics on Agriculture,51.5074456,-0.1277653,2
Dou H.,Research Institute of Petroleum Exploration and Development,Beijing,China,2016-12-23,Measurement and evaluation of the stress sensitivity in tight reservoirs,40.190632,116.412144,1
Ma Z.,Syddansk Universitet,Odense,Denmark,2016-12-22,Triple-layer smart grid business model: A comparison between sub-Saharan Africa and Denmark,55.3997225,10.3852104,2
Gao C.,China Aerodynamics Research and Development Center,Mianyang,China,2016-12-01,Design and realization of full flexible nozzle control system of the trans-supersonic wind tunnel,31.4602714,104.7160723,1
Kiriyama S.,Shizuoka University,Shizuoka,Japan,2016-12-27,A personalizing method focused on bodily feeling for indoor commonsense based air conditioning system,34.9332488,138.0955398,1
Ardashkin I.,Tomsk Polytechnic University,Tomsk,Russian Federation,2016-12-20,Evaluation of Engineering Training Competences in the Field of Smart Systems as a Factor of Russian Innovative Development Through the Example of Tomsk Polytechnic University,58.6124279,82.0475315,6
Saunders J.K.,Scripps Institution of Oceanography,La Jolla,United States,2016-12-01,Seismogeodesy using GPS and low-cost MEMS accelerometers: Perspectives for earthquake early warning and rapid response,32.8401623,-117.2740777,0
An Y.,Shandong University of Technology,Zibo,China,2016-12-27,Breakdown characteristics of different air gaps with negative switching impulse,36.8129564,118.0488401,1
Mancini M.,Politecnico di Milano,Milan,Italy,2016-12-27,Oil &amp; gas industry perception of modularization barriers and impacts,45.4641943,9.1896346,2
Zheng Z.,Beihang University,Beijing,China,2016-12-07,The research of scheduling algorithm for time-triggered ethernet based on path-hop,40.190632,116.412144,1
Chu T.,Globalfoundries Advanced Technology,Hopewell Junction,United States,2016-12-15,Electrically tunable bandgaps in 2D layered materials,41.5839824,-73.8087442,0
Vlčková I.,Material and Metallurgical Research Ltd.,Ostrava,Czech Republic,2016-12-01,Corrosion fatigue of austenitic stainless steels for nuclear power engineering,49.8349139,18.2820084,2
Antún J.,Universidad Nacional Autónoma de México,Mexico,Mexico,2016-12-01,Corporative Trends in Urban Distribution of Goods in Mexico City,19.4326296,-99.1331785,7
Cao H.L.,China University of Mining and Technology,Xuzhou,China,2016-12-01,Identifying coincidental correctness for effective fault localization,34.2665258,117.1810431,1
Szuladziński G.,Analytical Service Pty Ltd,Unknown,Australia,2016-12-01,Reverse Engineering of a Tall Building and Buckling Analysis of Its Peripheral Columns,-36.94326107487342,145.92771853383533,4
Wen C.,Central South University of Forestry and Technology,Changsha,China,2016-12-01,Risk prediction and classification of waste dump landslide based on attribute mathematical theory,28.1450774,113.2384362,1
André-Fontaine G.,"Oniris - Ecole Nationale Vétérinaire, Agroalimentaire et de l’Alimentation",Nantes,France,2016-12-01,Leptospirosis in domestic animals in France: Serological results from 1988 to 2007,47.2186371,-1.5541362,2
Reisbig N.,The Ohio State University,Columbus,United States,2016-12-01,Comparison of four methods for generating decellularized equine synovial extracellular matrix,39.9622601,-83.0007065,0
Czarnecki L.,Institut Techniki Budowlanej Warsaw,Warsaw,Poland,2016-12-01,Civil engineering - Ongoing technical research. Part I,52.2319581,21.0067249,2
Yuhazri M.Y.,Universiti Teknikal Malaysia Melaka,Malacca,Malaysia,2016-12-07,The Effect of Lamina Intraply Hybrid Composites on the Tensile Properties of Various Weave Designs,2.3293744,102.2880962,8
Beckett A.,University of Leeds,Leeds,United Kingdom,2016-12-01,Moving beyond boundaries: When user-centered design meets sociology,53.7974185,-1.5437941,2
Chicco G.,Politecnico di Torino,Turin,Italy,2016-12-09,Customer behaviour and data analytics,45.0677551,7.6824892,2
Ebert C.,Vector Consulting Services,Unknown,United States,2016-12-02,Requirements Engineering for the Digital Transformation: Industry Panel,33.79932715,-84.27586878426906,0
Classen M.,Rheinisch-Westfälische Technische Hochschule Aachen,Aachen,Germany,2016-12-01,Derivation of design rules for innovative shear connectors in steel-concrete composites through the systematic use of non-linear finite element analysis (FEA),50.776351,6.083862,2
Akiyama S.,National Institute of Advanced Industrial Science and Technology,Tsukuba,Japan,2016-12-01,Fast live migration for IO-intensive VMs with parallel and adaptive transfer of page cache via SAN,36.0833265,140.077279,1
Luo S.,China University of Geosciences,Wuhan,China,2016-12-19,Controllable synthesis of Titania-Supported Bismuth Oxyiodide Heterostructured Nanofibers with Highly Exposed (1 1 0) Bismuth Oxyiodide Facets for Enhanced Photocatalytic Activity,30.5951051,114.2999353,1
LI Y.,China University of Petroleum-Beijing,Beijing,China,2016-12-01,"A method of production profile quick prediction based on typical curves: A case study of the Upper Shale large multi-layered sandstone reservoir, Rumaila Oilfield, Iraq",40.190632,116.412144,1
Miyahara Y.,Nagoya Institute of Technology,Nagoya,Japan,2016-12-27,Prototype of cloud-based agent framework for public use,35.1851045,136.8998438,1
Matsagar V.,Indian Institute of Technology Delhi,New Delhi,India,2016-12-01,Special Issue: Earthquake Engineering and Structural Dynamics,28.64308585,77.21926705734865,3
Adam J.M.,Universitat Politècnica de València,Valencia,Spain,2016-12-01,Classification of damage to the structures of buildings in towns in coastal areas,39.4697065,-0.3763353,2
Gilal A.R.,Sukkur IBA University,Sukkur,Pakistan,2016-12-14,Impact of software team composition methodology on the personality preferences of Malaysian students,27.7004292,68.8664623,3
Muravyov S.,Tomsk Polytechnic University,Tomsk,Russian Federation,2016-12-12,Axiomatic definition of quantity as a basis for teaching metrology in Mechanical Engineering,58.6124279,82.0475315,6
Wałach D.,AGH University of Krakow,Krakow,Poland,2016-12-01,Impact of the Research Conditions on the Accuracy of the Designation of High Performance Concrete Strength Parameters,50.0469432,19.997153435836697,2
Shang Y.,Tianjin University,Tianjin,China,2016-12-01,Dynamic simulation of electronic expansion valve controlled refrigeration system under different heat transfer conditions,39.3032619,117.4163641,1
Hiasat A.,Princess Sumaya University,Amman,Jordan,2016-12-01,A Sign Detector for a Group of Three-Moduli Sets,31.9515694,35.9239625,2
Hilaire T.,Sorbonne Université,Paris,France,2016-12-09,Reliable fixed-point implementation of linear data-flows,48.8588897,2.3200410217200766,2
Dominguez M.,The University of Arizona,Tucson,United States,2016-12-01,Vertex radius measurement of an off-axis parabola with a three-ball spherometer,32.2228765,-110.974847,0
Diatta A.,Institut Fresnel,Marseille,France,2016-12-01,Control of Rayleigh-like waves in thick plate Willis metamaterials,43.2961743,5.3699525,2
Xu B.,China National Petroleum Corporation,Beijing,China,2016-12-25,"Karst reservoir prediction in Area Y, Sichuan Basin",40.190632,116.412144,1
Zhang Y.,Yangzhou University,Yangzhou,China,2016-12-10,A survey on trajectory dependences of structure and performance of thermally sprayed coatings,32.3968554,119.4077658,1
Navya P.N.,Siddaganga Institute of Technology,Tumkur,India,2016-12-01,Rational engineering of physicochemical properties of nanomaterials for biomedical applications with nanotoxicological perspectives,13.3400771,77.1006208,3
Shimada A.,Shibaura Institute of Technology,Tokyo,Japan,2016-12-01,Recent advances and outlook in industrial instrumentation and mechatronics control,35.6768601,139.7638947,1
Munk J.,Delft Center for Systems and Control,Delft,Netherlands,2016-12-27,Learning state representation for deep actor-critic control,52.0114017,4.35839,2
Charvát L.,"Brno University of Technology, Faculty of Information Technology",Brno,Czech Republic,2016-12-13,Hades: Microprocessor hazard analysis via formal verification of parameterized systems,49.1922443,16.6113382,2
Fabich H.T.,University of Cambridge,Cambridge,United Kingdom,2016-12-01,Development of ultrafast UTE imaging for granular systems,52.2055314,0.1186637,2
Pfeifer B.A.,School of Engineering and Applied Sciences,Buffalo,United States,2016-12-01,Editorial overview: Pharmaceutical biotechnology: New approaches for dynamic disease targets,42.8867166,-78.8783922,0
Variyath A.,Memorial University of Newfoundland,St John's,Canada,2016-12-27,Nonparametric information criterion for change point problems,47.5614705,-52.7126162,-1
Martinez-Calle N.,Clínica Universidad de Navarra,Pamplona,Spain,2016-12-01,Obinutuzumab in follicular lymphoma,42.81568595,-1.6522353378580308,2
Johan K.,Universiti Malaysia Pahang Al-Sultan Abdullah,Pekan,Malaysia,2016-12-07,Industrial training approach using GPM P5 Standard for Sustainability in Project Management: A framework for sustainability competencies in the 21<sup>st</sup> century,3.4895509,103.390396,8
Chery J.,University of Michigan Medical School,Ann Arbor,United States,2016-12-01,Regenerative medicine strategies for hypoplastic left heart syndrome,42.2813722,-83.7484616,0
Pathinarupothi R.K.,"Amrita University, Amritapuri Campus",Kollam,India,2016-12-01,RASPRO: Rapid summarization for effective prognosis in wireless remote health monitoring,8.8879509,76.5955013,3
Coleman C.,"University of the Witwatersrand, Johannesburg",Johannesburg,South Africa,2016-12-19,Nanoscale deformations in graphene by laser annealing,-26.205,28.049722,11
Savvatimskiy A.,Joint Institute for High Temperatures of the Russian Academy of Sciences,Moscow,Russian Federation,2016-12-01,Method and apparatus for studying high-temperature properties of conductive materials in the interests of nuclear power engineering,55.625578,37.6063916,2
Brouwer N.,Bavarian Motor Works Group,Munich,Germany,2016-12-22,Comparison and evaluation of pedestrian motion models for vehicle safety systems,48.1371079,11.5753822,2
Xu X.,Huazhong Agricultural University,Wuhan,China,2016-12-01,"Expression of an (engineered) 4,6-α-glucanotransferase in potato results in changes in starch characteristics",30.5951051,114.2999353,1
Allegaert E.,Siemens Digital Industries Software,Plano,United States,2016-12-16,Architecture-Based Synthesis of 1D-3D Models for Verification and Validation,33.0136764,-96.6925096,0
Palacios-Gasós J.M.,Universidad de Zaragoza,Zaragoza,Spain,2016-12-01,Distributed coverage estimation and control for multirobot persistent tasks,41.6521342,-0.8809428,2
Vulpe C.,The University of Western Australia,Perth,Australia,2016-12-01,Consolidated undrained capacity of shallow foundations subjected to self-weight and horizontal in-service loading,-31.9558933,115.8605855,15
Davydkov V.,Novosibirsk State Technical University,Novosibirsk,Russian Federation,2016-12-29,Multimedia support for physics laboratory works in higher education institutions,54.96781445,82.95159894278376,6
Alharbi H.,University of New England Australia,Armidale,Australia,2016-12-21,A multifactorial analysis of the acceptance of recommender system for saudi universities the literature revisited,-30.5144881,151.6656564,4
Hotomski S.,Universität Zürich,Zurich,Switzerland,2016-12-02,An Exploratory Study on Handling Requirements and Acceptance Test Documentation in Industry,47.3744489,8.5410422,2
Mentis A.F.A.,Johns Hopkins University,Baltimore,United States,2016-12-01,Epigenomic engineering for Down syndrome,39.2908816,-76.610759,0
Kaur Brar S.,Centre Eau Terre Environnement,Quebec,Canada,2016-12-01,Preface,53.78701075,-73.31569895762317,12
Fan J.,Zhengzhou University of Light Industry,Zhengzhou,China,2016-12-10,Review of lamellar orientation control of TiAl alloys,34.7533392,113.6599983,1
Calle E.A.,Yale School of Engineering &amp; Applied Science,New Haven,United States,2016-12-01,Targeted proteomics effectively quantifies differences between native lung and detergent-decellularized lung extracellular matrices,41.3082138,-72.9250518,0
Lepik K.V.,Pavlov University,Saint Petersburg,Russian Federation,2016-12-21,"Mesenchymal Stem Cell Magnetization: Magnetic Multilayer Microcapsule Uptake, Toxicity, Impact on Functional Properties, and Perspectives for Magnetic Delivery",59.9606739,30.1586551,2
Nam D.P.,Hanoi University of Science and Technology,Hanoi,Viet Nam,2016-12-12,Optimal control for bilateral teleoperation system with variational method,21.0283334,105.854041,1
Ma J.,Hong Kong University of Science and Technology,Hong Kong,Hong Kong,2016-12-01,Estimation of the building energy use intensity in the urban scale by integrating GIS and big data technology,22.2793278,114.1628131,1
Nieto-Chaupis H.,Universidad de Ciencias y Humanidades,Los Olivos,Peru,2016-12-08,An E-healthcare system to prevent the renal disease of diabetic patients belonging to Peri-urban areas of large cities,-11.9659853,-77.07307131998294,-1
Sze J.H.,Griffith University,Brisbane,Australia,2016-12-01,Biotechnological production of hyaluronic acid: a mini review,-27.4689682,153.0234991,4
Pawlik M.,Railway Research Institute,Warsaw,Poland,2016-12-01,Analyse of the Challenges for Safe Transition from Individual Intraoperable Railway Systems to the Single European Interoperable Railway System,52.2319581,21.0067249,2
Chen Z.,Shanghai Jiao Tong University,Shanghai,China,2016-12-27,"Joint optimization of degradation-based burn-in, quality, and preventive maintenance",31.2312707,121.4700152,1
Van Den Bossche N.,Universiteit Gent,Ghent,Belgium,2016-12-01,Airtightness and watertightness of window frames: Comparison of performance and requirements,51.0538286,3.7250121,2
Lindell I.V.,Aalto University,Espoo,Finland,2016-12-01,Plane-Wave Propagation in Extreme Magnetoelectric Media,60.2047672,24.6568435,2
Younes A.B.,Khalifa University of Science and Technology,Abu Dhabi,United Arab Emirates,2016-12-01,Semi-analytic probability density function for system uncertainty,24.4538352,54.3774014,2
Luo F.,Faculty of Engineering,Sydney,Australia,2016-12-08,Natural aggregation algorithm: A new efficient metaheuristic tool for power system optimizations,-33.8698439,151.2082848,4
Ferrari L.,Università di Parma,Parma,Italy,2016-12-01,"Phenotypic modulation of porcine CD14+ monocytes, natural killer/natural killer T cells and CD8αβ+ T cell subsets by an antibody-derived killer peptide (KP)",44.6952006,10.097986896904466,2
Jin X.,Chongqing University,Chongqing,China,2016-12-01,Explicit Analytical Solutions for a Complete Set of the Eshelby Tensors of an Ellipsoidal Inclusion,30.05518,107.8748712,1
Sarkar M.R.,The University of Adelaide,Adelaide,Australia,2016-12-16,The Use of Directing Groups Enables the Selective and Efficient Biocatalytic Oxidation of Unactivated Adamantyl C-H Bonds,-34.9281805,138.5999312,17
Shin S.S.,Hanyang University,Seoul,South Korea,2016-12-15,Shock vibration and damage responses of primary auxiliary buildings from aircraft impact,37.5666791,126.9782914,1
Armanini S.F.,"Faculteit Luchtvaart- en Ruimtevaarttechniek, TU Delft",Delft,Netherlands,2016-12-01,Decision-making for unmanned aerial vehicle operation in icing conditions,52.0114017,4.35839,2
Asmawi R.,Universiti Tun Hussein Onn Malaysia,Batu Pahat,Malaysia,2016-12-07,Solvent Debinding of MIM Parts in a Polystyrene-Palm Oil Based Binder System,1.933333,103.0,8
Ayyar B.V.,Baylor College of Medicine,Houston,United States,2016-12-01,Coming-of-Age of Antibodies in Cancer Therapeutics,29.7589382,-95.3676974,0
Ki P.,University of Bath,Bath,United Kingdom,2016-12-01,Stress Engineering during the Fabrication of InGaN/GaN Vertical Light Emitting Diodes for Reducing the Quantum Confined Stark Effect,51.3813864,-2.3596963,2
Li Y.,Taiyuan University of Technology,Taiyuan,China,2016-12-08,Shear behavior of composite soils,37.870009,112.5452739,1
Ursan G.,SC All Green SRL,Iasi,Romania,2016-12-09,Fire behavior analysis for new retardant nanocomposite formulations with minimum risk to health and safety,47.1615598,27.5837814,2
Zhou R.,Changsha University of Science and Technology,Changsha,China,2016-12-09,Low-Carbon Economic Dispatch considering carbon capture unit and demand response under carbon trading,28.1450774,113.2384362,1
Touzani M.,Université de Montpellier,Montpellier,France,2016-12-02,Towards Modelling and Analysis of Spatial and Temporal Requirements,43.6112422,3.8767337,2
Rogalewicz M.,Politechnika Poznanska,Poznan,Poland,2016-12-01,Methodologies of knowledge discovery from data and data mining methods in mechanical engineering,52.4082663,16.9335199,2
Zhang Z.,Zhejiang Institute of Hydraulics &amp; Estuary,Hangzhou,China,2016-12-01,Improving the prediction of scour around submarine pipelines,30.2489634,120.2052342,1
Huang C.,Dalian Maritime University,Dalian,China,2016-12-14,A novel autocorrelation approach for frequency estimation of a sinusoid,39.740278,122.255833,1
Galante R.,Universidade de São Paulo,Sao Paulo,Brazil,2016-12-01,About the sterilization of chitosan hydrogel nanoparticles,-23.5506507,-46.6333824,9
Reyna Y.,CSIC-UAB-GC - Instituto Catalán de Nanociencia y Nanotecnología (ICN2),Barcelona,Spain,2016-12-01,Performance and stability of mixed FAPbI<inf>3(0.85)</inf>MAPbBr<inf>3(0.15)</inf> halide perovskite solar cells under outdoor conditions and the effect of low light irradiation,41.3828939,2.1774322,2
Cappa E.P.,Instituto Nacional de Tecnología Agropecuaria Buenos Aires,Buenos Aires,Argentina,2016-12-01,A combined analysis in complementary progeny tests: Effects on breeding value accuracies,-34.6083696,-58.4440583,16
Cauldbeck H.,University of Liverpool,Liverpool,United Kingdom,2016-12-28,Controlling drug release from non-aqueous environments: Moderating delivery from ocular silicone oil drug reservoirs to combat proliferative vitreoretinopathy,53.4071991,-2.99168,2
Fatahi M.,Razi University,Kermanshah,Iran,2016-12-29,Towards an spiking deep belief network for face recognition application,34.486732,46.80872698861859,2
Mo W.,Guangzhou Power Supply Company Limited,Guangzhou,China,2016-12-27,A failure probability model of the moistened oil-paper insulation of transformers based on strength-stress model,23.1301964,113.2592945,1
Ohtsuka S.,"National Institute of Technology, Gunma College",Maebashi,Japan,2016-12-27,Alternative vibration presentation methods for the two-point Body-Braille system,36.3893418,139.0632826,1
Tozzo C.,Sapienza Università di Roma,Rome,Italy,2016-12-01,Dilatancy in the analysis of interlayer cyclic shear test results,41.8933203,12.4829321,2
Lee M.F.,Universiti Tun Hussein Onn Malaysia,Batu Pahat,Malaysia,2016-12-27,A comparison study of methods to solve the mental health problem between the engineering and non-engineering students,1.933333,103.0,8
Cai J.,Lanzhou University,Lanzhou,China,2016-12-05,The design and implementation of distributed data acquisition system based on EtherCAT and CompactRIO,36.474436,103.733224,1
Mehlitz P.,NASA Ames Research Center,Moffett Field,United States,2016-12-07,RACE: Building airspace simulations faster and better with actors,37.40410955,-122.05130742061216,0
Carlin K.B.,NC State College of Engineering,Raleigh,United States,2016-12-16,Combinatorial Pairwise Assembly Efficiently Generates High Affinity Binders and Enables a “Mix-and-Read” Detection Scheme,35.7803977,-78.6390989,0
Zhang Q.,Beihang University,Beijing,China,2016-12-01,Theoretical investigation on the springback behavior of aa7b04 sheet in hydraulic bulge process,40.190632,116.412144,1
Hu J.,Shanghai Jiao Tong University,Shanghai,China,2016-12-27,Optimal preventive maintenance for system in time-varying operation condition,31.2312707,121.4700152,1
Chen X.,Institute of Metal Research Chinese Academy of Sciences,Shenyang,China,2016-12-01,Lowering coefficient of friction in cu alloys with stable gradient nanostructures,41.8026095,123.4279105,1
Wen H.,Nanjing University of Aeronautics and Astronautics,Nanjing,China,2016-12-01,Three-dimensional deployment of electro-dynamic tether via tension and current control with constraints,32.0438284,118.7788631,1
Wang K.,Tsinghua University,Beijing,China,2016-12-01,Determination of electrostatic force and its characteristics based on phase difference by amplitude modulation atomic force microscopy,40.190632,116.412144,1
Donohue J.,University of Waterloo,Waterloo,Canada,2016-12-06,Spectrally Engineering Photonic Entanglement with a Time Lens,43.4652699,-80.5222961,0
Singh R.,Indian Institute of Technology Delhi,New Delhi,India,2016-12-01,Validation of Reverse-Engineered and Additive-Manufactured Microsurgical Instrument Prototype,28.64308585,77.21926705734865,3
Qi X.,Hefei University of Technology,Hefei,China,2016-12-05,A coordinated charging control strategy for electric vehicles in residential area with power limitation,31.8665676,117.281428,1
Tang Z.,China University of Mining and Technology,Xuzhou,China,2016-12-15,Changes to coal pores and fracture development by ultrasonic wave excitation using nuclear magnetic resonance,34.2665258,117.1810431,1
Kong X.,Nanjing University of Science and Technology,Nanjing,China,2016-12-01,A GPS-based camera calibration method,32.0438284,118.7788631,1
Xie Z.,China Institute of Atomic Energy,Beijing,China,2016-12-20,Design of mobile integrated control device for domestic sodium-cooled fast reactor's plugging meter,40.190632,116.412144,1
Sharp M.D.,Colorado State University,Fort Collins,United States,2016-12-01,Institutional Constraints on Cost-Effective Water Management: Selenium Contamination in Colorado's Lower Arkansas River Valley,40.5871782,-105.0770113,0
XIANG H.,National University of Oil and Gas «Gubkin University»,Moscow,Russian Federation,2016-12-01,Modern methods of underground hydromechanics with applications to reservoir engineering,55.625578,37.6063916,2
Madigan R.,University of Leeds,Leeds,United Kingdom,2016-12-01,Application of Human Factors Analysis and Classification System (HFACS) to UK rail safety of the line incidents,53.7974185,-1.5437941,2
Gavryusev V.,Universität Heidelberg,Heidelberg,Germany,2016-12-01,Interaction Enhanced Imaging of Rydberg P states: Preparation and detection of Rydberg atoms for engineering long-range interactions,49.4093582,8.694724,2
Borzȩcka A.,Instituto Superior de Engenharia do Porto,Porto,Portugal,2016-12-07,"Educating global engineers with EPS@ISEP: The ""pet tracker"" project experience",41.1494512,-8.6107884,2
Suardi M.,Automotive Research Group (ARG),Unknown,Malaysia,2016-12-07,Development for Thermophoresis Experimental under Microgravity Condition,6.11707015,102.274695678125,8
Pu Y.,"College of Chemical and Biological Engineering, Zhejiang University",Hangzhou,China,2016-12-01,Novel approach for the evolution of pyrroloquinoline quinone glucose dehydrogenase by multiplex-site in situ engineering,30.2489634,120.2052342,1
McLaren D.,Lancaster Environment Centre,Lancaster,United Kingdom,2016-12-01,Mitigation deterrence and the “moral hazard” of solar radiation management,54.0484068,-2.7990345,2
Falkner A.,Technische Universität Wien,Vienna,Austria,2016-12-01,Twenty-five years of successful application of constraint technologies at Siemens,48.2083537,16.3725042,2
Charlebois S.,Dalhousie University,Halifax,Canada,2016-12-16,"Food Safety, Risk Intelligence and Benchmarking",44.648618,-63.5859487,0
Hamano S.,Hokkaido University,Sapporo,Japan,2016-12-27,Different language association using mutual information between tags and visual features,43.061936,141.3542924,1
Meng N.,Nanjing Normal University,Nanjing,China,2016-12-01,Carboxylated graphene oxide functionalized with β-cyclodextrin—Engineering of a novel nanohybrid drug carrier,32.0438284,118.7788631,1
Robinson-García N.,Universidad de Granada,Granada,Spain,2016-12-01,Analyzing data citation practices using the data citation index,37.1734995,-3.5995337,2
Olafson K.N.,University of Houston,Houston,United States,2016-12-13,Engineering Crystal Modifiers: Bridging Classical and Nonclassical Crystallization,29.7589382,-95.3676974,0
Schuh G.,Fraunhofer Institute for Production Technology IPT,Aachen,Germany,2016-12-01,Quantification of external uncertainties in the design process of production networks,50.776351,6.083862,2
Chen W.,University of Chinese Academy of Sciences,Beijing,China,2016-12-27,A study on the relationship between the moral self-concept and the cyber aggression behavior of college students,40.190632,116.412144,1
Han R.,"Gilsanz. Murray. Steficek, LLP",New York,United States,2016-12-01,Seismic Loss Estimation with Consideration of Aftershock Hazard and Post-Quake Decisions,40.7127281,-74.0060152,0
Cao H.,Chongqing University of Posts and Telecommunications,Chongqing,China,2016-12-30,An improved recommendation algorithm based on Bhattacharyya Coefficient,30.05518,107.8748712,1
Bialas C.,University of Pennsylvania Perelman School of Medicine,Philadelphia,United States,2016-12-28,Engineering an Artificial Flavoprotein Magnetosensor,39.9527237,-75.1635262,0
Sharma L.,Indian Institute of Technology Guwahati,Guwahati,India,2016-12-12,Teager-Kaiser energy operator in Hilbert space for heart sound segmentation,26.1805978,91.753943,3
Shuai Y.,China Iron and Steel Research Institute Group,Beijing,China,2016-12-25,Effect of tempering on microstructure and mechanical properties of marine engineering steel E690,40.190632,116.412144,1
Troiano G.O.,Universidade Estadual de Campinas,Campinas,Brazil,2016-12-22,Co-simulator of power and communication networks using OpenDSS and OMNeT++,-22.9056391,-47.059564,9
Azadeh A.,University of Tehran,Tehran,Iran,2016-12-01,The Impact of Redundancy and Teamwork on Resilience Engineering Factors by Fuzzy Mathematical Programming and Analysis of Variance in a Large Petrochemical Plant,35.6892523,51.3896004,2
Ryan B.,University of Nottingham,Nottingham,United Kingdom,2016-12-05,Human factors in the management of engineering possessions: The roles of the engineering supervisor and picop,52.9534193,-1.1496461,2
Liu J.,National University of Defense Technology China,Changsha,China,2016-12-08,Wireless multipath fading channels modeling and simulation based on Sum-of-Sinusoids,28.1450774,113.2384362,1
Beigrezaei M.,"Islamic Azad University, Qazvin Branch",Qazvin,Iran,2016-12-29,PPRA: A new pre-fetching and prediction based replication algorithm in data grid,36.0156291,49.8398161,2
Ling M.,National Taiwan Ocean University,Keelung,Taiwan,2016-12-01,Assessing Risk-Based Upper Limits of Melamine Migration from Food Containers,25.1317232,121.744652,1
Cao C.,Zhejiang University,Hangzhou,China,2016-12-01,Design and test of new thermal knife restraint and release device,30.2489634,120.2052342,1
Roytelman I.,"Open Access Technology International, Inc.",Minneapolis,United States,2016-12-09,Volt/VAR control and Conservation Voltage Reduction as a function of advanced DMS,44.9772995,-93.2654692,0
Martinez-Quetglas I.,Universitat de Barcelona,Barcelona,Spain,2016-12-01,IGF2 Is Up-regulated by Epigenetic Mechanisms in Hepatocellular Carcinomas and Is an Actionable Oncogene Product in Experimental Models,41.3828939,2.1774322,2
Zare-Shahabadi A.,Tehran University of Medical Sciences,Tehran,Iran,2016-12-15,Proteins brighten the brain,35.6892523,51.3896004,2
Liu C.,Chengdu University of Technology,Chengdu,China,2016-12-01,Analytical and numerical studies on the nonlinear dynamic response of orthotropic membranes under impact load,30.6598628,104.0633717,1
Madni T.M.,Universiti Teknologi PETRONAS,Seri Iskandar,Malaysia,2016-12-14,Usability evaluation of orientation techniques for medical image analysis using tabletop system,4.3612524,100.9508728,8
Hoang G.B.,"Vietnam National University, Hanoi",Hanoi,Viet Nam,2016-12-01,"Research, design and fabrication of 2.45 GHz microstrip patch antenna arrays for close-range wireless power transmission systems",21.0283334,105.854041,1
Montecchio F.,The Royal Institute of Technology (KTH),Stockholm,Sweden,2016-12-15,Development of a stagnation point flow system to screen and test TiO<inf>2</inf>-based photocatalysts in air purification applications,59.3251172,18.0710935,2
Yang B.,State Key Laboratory for Manufacturing Systems Engineering,Xi'an,China,2016-12-16,Sparse representation based on redundant dictionary and basis pursuit denoising for wind turbine gearbox fault diagnosis,34.261004,108.9423363,1
Yousuf R.G.,Department of Chemical Engineering and Analytical Science,Manchester,United Kingdom,2016-12-01,"Date seed characterisation, substrate extraction and process modelling for the production of polyhydroxybutyrate by Cupriavidus necator",53.4794892,-2.2451148,2
Yeh S.,Taiwan Semiconductor Manufacturing Company,Hsinchu,Taiwan,2016-12-27,Lidded FCCSP warpage evaluation: Process modeling and characterization of the effect of viscoelasticity and cured shrinkage for molded underfill,24.8066333,120.9686833,1
Giannoudis P.V.,University of Leeds,Leeds,United Kingdom,2016-12-01,Progenitor cells and tissue repair: more to come?,53.7974185,-1.5437941,2
Chen P.,University of Science and Technology Beijing,Beijing,China,2016-12-15,Effect of triangular texture on the tribological performance of die steel with TiN coatings under lubricated sliding condition,40.190632,116.412144,1
O'Rourke T.D.,Cornell University,Ithaca,United States,2016-12-01,Underground pipeline response to earthquake-induced ground deformation,42.4374175,-76.54837235139263,0
Tang T.,Beijing Jiaotong University,Beijing,China,2016-12-22,Field test results analysis in urban rail transit train ground communication systems of integrated service using LTE-M,40.190632,116.412144,1
Yin L.,Changsha University of Science and Technology,Changsha,China,2016-12-25,Study on synthesis method and solution-region of approximate straight-line linkage with two inter-convertible pivots,28.1450774,113.2384362,1
De Domenico M.,Universitat Rovira i Virgili,Tarragona,Spain,2016-12-01,Quantifying the diaspora of knowledge in the last century,41.1172364,1.2546057,2
Wang J.,Tianjin University of Technology,Tianjin,China,2016-12-01,Utility evaluation based on one-to-n mapping in the Prisoner's dilemma game for interdependent networks,39.3032619,117.4163641,1
Bendík J.,Masaryk University,Brno,Czech Republic,2016-12-01,Tunable online MUS/MSS enumeration,49.1922443,16.6113382,2
Gomes C.,Universiti Putra Malaysia,Serdang,Malaysia,2016-12-19,Lightning safety psyche,3.0340649,101.7055684,8
Rönnqvist H.,RQV Teknik AB,Hudiksvall,Sweden,2016-12-01,Effects of suffusion in embankment dam filters,61.7281607,17.105575,2
Keshavarzi M.,Sharif University of Technology,Tehran,Iran,2016-12-22,A simple geometrical approach for deinterleaving radar pulse trains,35.6892523,51.3896004,2
Buchmann T.,Universität Bayreuth,Bayreuth,Germany,2016-12-01,Using triple graph grammars to realise incremental round-trip engineering,49.9427202,11.5763079,2
Ju G.,Xinjiang University,Urumqi,China,2016-12-01,Adaptive image enhancement based on multiple algorithm fusion,43.8244074,87.6139038,-1
Duong T.N.B.,School of Computer Science and Engineering,Singapore City,Singapore,2016-12-16,RA2: Predicting Simulation Execution Time for Cloud-Based Design Space Explorations,1.2899175,103.8519072,8
Pourebrahim M.,University of Tehran,Tehran,Iran,2016-12-14,Design and implementation of PI and Fuzzy PID supervisory controllers for a flexible link robot,35.6892523,51.3896004,2
Arora A.,Indian Institute of Technology Kanpur,Kanpur,India,2016-12-01,Pericellular plasma clot negates the influence of scaffold stiffness on chondrogenic differentiation,26.4609135,80.3217588,3
Rosas D.I.A.,Universidad Autónoma de Baja California,Mexicali,Mexico,2016-12-22,Methodology based on design of experiments to assess quality of estimated disturbances by state observers in mechanical systems,32.6405247,-115.474899,0
Siriwardane H.J.,Benjamin M. Statler College of Engineering and Mineral Resources,Morgantown,United States,2016-12-01,Geomechanical response of overburden caused by CO<inf>2</inf> injection into a depleted oil reservoir,39.6296809,-79.9559437,0
Roth M.J.,U.S. Army Engineer Research and Development Center,Vicksburg,United States,2016-12-21,Hydrodynamic meshfree method for high-rate solid dynamics using a Rankine–Hugoniot enhancement in a Riemann-SCNI framework,32.3528055,-90.8777342,0
Basu A.,Jerusalem College of Engineering,Jerusalem,Israel,2016-12-15,Poly(lactic acid) based hydrogels,31.7788242,35.2257626,2
Alvertis I.,National Technical University of Athens (NTUA),Athens,Greece,2016-12-14,Using crowdsourced and anonymized Personas in the requirements elicitation and software development phases of software engineering,37.9755648,23.7348324,2
Narayan J.,Virginia Polytechnic Institute and State University,Blacksburg,United States,2016-12-22,A Hidden Markov Model approach for automatic closed protocol hop synchronization,37.2296566,-80.4136767,0
Zhou H.,North China Electric Power University,Beijing,China,2016-12-20,Effect of temperature on charge accumulation on insulator in DC-GIL,40.190632,116.412144,1
Cai C.,College of Engineering,Houghton,United States,2016-12-01,Gaskinetic modeling on dilute gaseous plume impingement flows,46.8591287,-88.7774734,0
Jutras I.,Tyco Fire Protection Products,Unknown,United States,2016-12-01,Development of objective-criteria-scenario triplets and design fires for performance-based Fire Safety Design,33.79932715,-84.27586878426906,0
Zhu Z.,Southeast University,Nanjing,China,2016-12-01,Life cycle cost analysis of three types of power lines in 10 kV distribution network,32.0438284,118.7788631,1
Hu K.,Huashan Hospital,Shanghai,China,2016-12-02,Scientific profile of brain–computer interfaces: Bibliometric analysis in a 10-year period,31.2312707,121.4700152,1
Kargarpour M.A.,College of Engineering and Mines at the University of Alaska,Fairbanks,United States,2016-12-01,Analysis of asphaltene deposition in Marrat oil well string: a new approach,64.837845,-147.716675,-1
Xu H.,North China Electric Power University,Beijing,China,2016-12-14,Type synthesis of TMDs as anti-galloping devices for overhead transmission lines by using planar mechanisms,40.190632,116.412144,1
Ilas T.,Universitatea Tehnica Gh. Asachi din IasI,Iasi,Romania,2016-12-09,Fluid model used for simulating streamer breakdown in SF<inf>6</inf> and SF<inf>6</inf>-N<inf>2</inf> mixtures,47.1615598,27.5837814,2
Guo Z.,Shandong Electric Power Research Institute,Jinan,China,2016-12-27,Reliable life calculation of circuit breaker based on FTA and reliability function,36.6519754,117.1138479,1
Chen Z.,Faculty of Health Sciences,Taipa,Macao,2016-12-01,Generation of bispecific antibodies by Fc heterodimerization and their application,22.1573804,113.5601035,1
Catrysse P.B.,Ginzton Laboratory,Stanford,United States,2016-12-21,Photonic Structure Textile Design for Localized Thermal Cooling Based on a Fiber Blending Scheme,37.427467,-122.1702445,0
Banerjee A.,The University of Burdwan,Bardhaman,India,2016-12-01,Bacterial exopolysaccharides: Major types and future prospects,23.2495714,87.8681751,3
Bin T.Y.,Universiti Tun Hussein Onn Malaysia,Batu Pahat,Malaysia,2016-12-07,Task Analysis Assessment on Intrastate Bus Traffic Controllers,1.933333,103.0,8
Wang D.,"Ningbo Rail Transit Group Co., Ltd.",Ningbo,China,2016-12-01,Experimental field study on the structural behaviors of the linings of quasi-rectangular shield tunnels,29.8622194,121.6203873,1
Assila A.,University of Sfax,Sfax,Tunisia,2016-12-01,Integration of Subjective and Objective Usability Evaluation Based on IEC/IEC 15939: A Case Study for Traffic Supervision Systems,34.7394361,10.7604024,2
Li X.T.,Leidos Inc.,Reston,United States,2016-12-20,"TCRISPRi: Tunable and reversible, one-step control of gene expression",38.95321195,-77.35018103387603,0
Xie T.,China Earthquake Networks Center,Unknown,China,2016-12-01,Apparent resistivity temporal variation characteristics affected by the fixed disturbance source on surface of measuring area,37.6955832,93.5275125,18
Zhao Y.,University of South-Eastern Norway,Kongsberg,Norway,2016-12-01,Recent advance on engineering titanium dioxide nanotubes for photochemical and photoelectrochemical water splitting,59.59455005,9.670860075643745,2
Borzov A.,Bauman Moscow State Technical University,Moscow,Russian Federation,2016-12-01,Electric model of an aircraft in problems of short-range radar of air targets,55.625578,37.6063916,2
Jin T.,Institute of Electronics Chinese Academy of Sciences,Beijing,China,2016-12-01,Estimation Accuracy and Cramér-Rao Lower Bounds for Errors in Multichannel HRWS SAR Systems,40.190632,116.412144,1
Xu W.,State Grid Corporation of China,Beijing,China,2016-12-09,Security check for scheduling plans based on contingency screening and parallel computation for multi-period cases,40.190632,116.412144,1
Zhang M.,Beijing University of Technology,Beijing,China,2016-12-01,Design methods of the concrete-filled steel tube inner-bracing system for deep excavation,40.190632,116.412144,1
Morales D.X.,Universidad Católica de Cuenca,Cuenca,Ecuador,2016-12-08,Enhanced placement of fault locators on overhead distribution networks,-2.8974072,-79.0041726,19
Steinlechner F.,Osterreichische Akademie Der Wissenschaften,Vienna,Austria,2016-12-16,Development of a space-proof polarization-entangled photon source,48.2083537,16.3725042,2
Mahjour S.K.,"Islamic Azad University, Science and Research Branch",Tehran,Iran,2016-12-01,"Identification of flow units using methods of Testerman statistical zonation, flow zone index, and cluster analysis in Tabnaak gas field",35.6892523,51.3896004,2
Ufere S.,Universiti Teknologi Malaysia,Johor Bahru,Malaysia,2016-12-01,Fabrication and characterization of pcl/ha/ppy composite scaffold using freeze-drying technique,1.4581986,103.7649059,8
Gama-Moreno L.,Techological Institute of Tlajomulco,Unknown,Mexico,2016-12-22,A design of a water tanks monitoring system based on mobile devices,25.76367855,-100.2498461260017,14
Zhu J.H.,Northwestern Polytechnical University,Xi'an,China,2016-12-01,Topology Optimization in Aircraft and Aerospace Structures Design,34.261004,108.9423363,1
Deng K.,Hunan University of Science and Technology,Xiangtan,China,2016-12-01,Adaptability to stratum characteristics for layout of thrust system in tunneling machines based on variation coefficient,27.681864,112.626292,1
Farah S.,MIT School of Engineering,Cambridge,United States,2016-12-15,"Physical and mechanical properties of PLA, and their functions in widespread applications — A comprehensive review",42.3656347,-71.1040018,0
Jeong S.,Korea Advanced Institute of Science and Technology,Daejeon,South Korea,2016-12-06,Protein binders specific for immunoglobuling from different species for immunoassays and multiplex imaging,36.3497007,127.3849016,1
Kamat D.K.,Sinhgad Academy of Engineering,Pune,India,2016-12-14,Multi-frequency and multi-segment bio-impedance measurement using tetrapolar electrode setup,18.5213738,73.8545071,3
Valentim N.A.,Universidade Federal de Uberlândia,Uberlandia,Brazil,2016-12-16,A Systematic Mapping Review of the First 20 Years of Software Aging and Rejuvenation Research,-18.9188041,-48.2767837,9
Walsh D.A.,University College Dublin,Dublin,Ireland,2016-12-05,"A new workflow for generating low amalgamation, high net:gross geomodels constrained to well data.",53.3493795,-6.2605593,2
Li Y.,Southwest University,Chongqing,China,2016-12-01,Loss of second and sixth conserved cysteine residues from trypsin inhibitor-like cysteine-rich domain-type protease inhibitors in Bombyx mori may induce activity against microbial proteases,30.05518,107.8748712,1
Qiu Y.,Nanyang Technological University,Singapore City,Singapore,2016-12-01,A Mutual Authentication and Key Establishment Scheme for M2M Communication in 6LoWPAN Networks,1.2899175,103.8519072,8
Carrillo de Gea J.M.,Universidad de Murcia,Murcia,Spain,2016-12-01,Are the expected benefits of requirements reuse hampered by distance? An experiment,37.9923795,-1.1305431,2
Jetel V.,Czech Technical University in Prague,Prague,Czech Republic,2016-12-22,Coordination of public infrastructure solution for preventing of accidents,50.0874654,14.4212535,2
Movaghati M.,Amirkabir University of Technology,Tehran,Iran,2016-12-29,Modular-based measuring semantic quality of ontology,35.6892523,51.3896004,2
Han S.S.,Korea Institute of Toxicology,Yusong,South Korea,2016-12-02,Engineering of the conformational dynamics of an enzyme for relieving the product inhibition,37.0001006,127.9004257,1
Luo B.,Xiangtan University,Xiangtan,China,2016-12-30,Application and advance in the research of cathode materials for Li-ion batteries by using electrospinning technology,27.681864,112.626292,1
Rathi T.,Indian Institute of Technology Kharagpur,Kharagpur,India,2016-12-12,Customer lifetime value measurement using machine learning techniques,22.34309,87.3012875,3
Bhattacharyya B.,"Indian Institute of Technology (Indian School of Mines), Dhanbad",Dhanbad,India,2016-12-01,GA based optimal planning of VAR sources using Fast Voltage Stability Index method,23.7952809,86.4309638,3
Yang Y.,Tianjin Navigation Instrument Research Institute,Tianjin,China,2016-12-01,Gradient signal demodulation and filtering for rotating accelerometer gravity gradiometer,39.3032619,117.4163641,1
Li H.,Lyles School of Civil Engineering,West Lafayette,United States,2016-12-22,Virtual detection at intersections using connected vehicle trajectory data,40.4258686,-86.9080655,0
Cepin M.,Univerza v Ljubljani,Ljubljana,Slovenia,2016-12-01,House events matrix for shutdown probabilistic safety assessment,46.0500268,14.5069289,2
Ravichandran S.,School of Electrical and Computer Engineering,Atlanta,United States,2016-12-15,A simple visualization and programming framework for wireless sensor networks: PROVIZ,33.7489924,-84.3902644,0
Banerjee A.,IMDEA Software Institute,Pozuelo de Alarcon,Spain,2016-12-01,Relational logic with framing and hypotheses,40.4346528,-3.814834,2
Rasul J.,University of Birmingham,Birmingham,United Kingdom,2016-12-01,Consideration of the deterioration of stabilised subgrade soils in analytical road pavement design,52.4796992,-1.9026911,2
Ferreira C.,Universidade Federal de Juiz de Fora,Juiz de Fora,Brazil,2016-12-01,Nonlinear regression models under skew scale mixtures of normal distributions,-21.7609533,-43.3501129,9
Zhou X.,Key Laboratory of Data Engineering and Knowledge Engineering,Beijing,China,2016-12-01,Technique based on shared execution strategy for optimizing interval query,40.190632,116.412144,1
Nagano S.,Justus-Liebig-Universität Gießen,Giessen,Germany,2016-12-19,Understanding the Assembly of an Artificial Protein Nanotube,50.5862066,8.6742306,2
Jean X.,Thales Research and Technology,Palaiseau,France,2016-12-07,Assurance methods for COTS multi-cores in avionics,48.7144587,2.2453842,2
Kiani M.,Persian Gulf University,Bushehr,Iran,2016-12-01,Impact of fluid characterization on compositional gradient in a volatile oil reservoir,28.8936645,51.3204877,2
Khai L.Q.,Viet Nam National University Ho Chi Minh City,Ho Chi Minh City,Viet Nam,2016-12-12,Application of portable electroencephalograph device in controlling and identifying emotion,10.7763897,106.7011391,20
Yadav D.S.,"Pandit Dwarka Prasad Mishra Indian Institute of Information Technology, Design &amp; Manufacturing Jabalpur",Jabalpur,India,2016-12-01,A novel gate and drain engineered charge plasma tunnel field-effect transistor for low sub-threshold swing and ambipolar nature,23.1701522,79.9324505,3
Wu B.,Shihezi University,Shihezi,China,2016-12-08,EXPERIMENTAL STUDY ON OSTEOGENIC ACTIVITY OF RABBIT BONE MARROW MESENCHYMAL STEM CELLS INDUCED BY KLD-12 POLYPEPTIDE/RECOMBINANT HUMAN BONE MORPHOGENETIC PROTEIN 2 GEL,44.3017013,86.0775574,-1
