author_name,affiliation,city,country,publication_date,title,latitude,longitude,cluster
Edlmann K.,The University of Edinburgh,Edinburgh,United Kingdom,2015-12-23,Appraisal of global CO<inf>2</inf> storage opportunities using the geomechanical facies approach,55.9533456,-3.1883749,0
Si K.,Monash University,Melbourne,Australia,2015-12-01,Dual-Coded Plasmene Nanosheets as Next-Generation Anticounterfeit Security Labels,-37.8142454,144.9631732,1
Lu Q.,Whiting School of Engineering,Baltimore,United States,2015-12-01,Carnitine and acetylcarnitine modulate mesenchymal differentiation of adult stem cells,39.2908816,-76.610759,2
Ghaffari F.,Tarbiat Modares University,Tehran,Iran,2015-12-24,DroidMalHunter: A novel entropy-based anomaly detection system to detect malicious Android applications,35.6892523,51.3896004,0
Xu D.,"Shandong University, Weihai",Weihai,China,2015-12-01,Scalable multi-hash name lookup method for named data networking,37.5120997,122.1152599,3
Tamura S.,Gifu University,Gifu,Japan,2015-12-22,Multi-modal service operation estimation using DNN-based acoustic bag-of-features,35.7867449,137.0460777,3
Khan M.,Rheinisch-Westfälische Technische Hochschule Aachen,Aachen,Germany,2015-12-23,Highly linear and reliable low band class-O RF power amplifier in 130 nm CMOS technology for 4G LTE applications,50.776351,6.083862,0
Peng D.,University of Georgia,Athens,United States,2015-12-30,CRISPR-Cas9-mediated single-gene and gene family disruption in Trypanosoma cruzi,33.9597677,-83.376398,2
Hadicke O.,Max Planck Institute for Dynamics of Complex Technical Systems,Magdeburg,Germany,2015-12-01,Manipulation of the ATP pool as a tool for metabolic engineering,52.1315889,11.6399609,0
Reeping D.,Ohio Northern University,Ada,United States,2015-12-02,Viewing K-12 mathematics and science standards through the lens of the first-year introduction to engineering course classification scheme,38.8398935,-83.5051704,2
Radlak K.,Silesian University of Technology,Gliwice,Poland,2015-12-02,Integration of robotic arm manipulator with computer vision in a project-based learning environment,50.30113145,18.662347227971978,0
Cheval V.,INRIA Institut National de Recherche en Informatique et en Automatique,Le Chesnay,France,2015-12-01,Secure refinements of communication channels,48.8264842,2.1257808,0
Lendering K.T.,"Faculteit Civiele Techniek en Geowetenschappen, TU Delft",Delft,Netherlands,2015-12-26,Risk-based optimization of land reclamation,52.0114017,4.35839,0
Main J.B.,Purdue University,West Lafayette,United States,2015-12-02,Student evaluations of team members: Is there gender bias?,40.4258686,-86.9080655,2
Rolim T.,Comando Geral de Tecnologia Aeroespacial,Sao Jose dos Campos,Brazil,2015-12-01,Preliminary analysis of scramjet engines based on engineering models,-23.1867782,-45.8854538,4
Zhang B.,Tsinghua University,Beijing,China,2015-12-31,Connection method of grounding grids for internet data center co-sited with substation,40.190632,116.412144,3
Sypsas A.,University of Ioannina,Ioannina,Greece,2015-12-16,Supporting undergraduate students via Webinars,39.6639818,20.8522784,0
Luiz Oliveira H.,Universidade de São Paulo,Sao Paulo,Brazil,2015-12-01,"Erratum: An alternative BEM formulation, based on dipoles of stresses and tangent operator technique, applied to cohesive crack growth modelling (Engineering Analysis with Boundary Elements (2041) 14 (74-82))",-23.5506507,-46.6333824,4
Liu C.,Osaka University,Suita,Japan,2015-12-14,Control of Cell-Cell Distance and Cell Densities in Millimeter-Sized 3D Tissues Constructed by Collagen Nanofiber Coating Techniques,34.7594193,135.516835,3
Norbakyah J.,Universiti Malaysia Terengganu,Kuala Terengganu,Malaysia,2015-12-22,Power requirements for PHERB powertrain,5.3296461,103.1383265,5
Erndt-Marino J.D.,Rensselaer Polytechnic Institute,Troy,United States,2015-12-14,Evaluation of the Osteoinductive Capacity of Polydopamine-Coated Poly(-caprolactone) Diacrylate Shape Memory Foams,42.7284117,-73.6917878,2
Chen W.,National Chung Cheng University,Min-Hsiung,Taiwan,2015-12-22,Scene-aware high dynamic range imaging,23.5552283,120.4316823,3
Chen H.,University of Electronic Science and Technology of China,Chengdu,China,2015-12-01,Calculation of Elastic Bond Constants in Atomistic Strain Analysis,30.6598628,104.0633717,3
Tang Z.,Wuhan University,Wuhan,China,2015-12-10,Empirical peak shear strength criterion for rock joints based on slope root-mean-square,30.5951051,114.2999353,3
Zhang H.,Nanjing University of Aeronautics and Astronautics,Nanjing,China,2015-12-23,The research on a novel linear stepping piezoelectric stacks actuator,32.0438284,118.7788631,3
Şayli Ö.,Kocaeli Üniversitesi,İzmit,Turkey,2015-12-30,"Use of entropy, spectral parameters and recurrence quantification analysis for the evaluation of muscle fatigue from surface electromyography",40.7721138,29.9505623,0
Rista C.,BARBER-NICHOLS INC.,Arvada,United States,2015-12-18,"Engineering, manufacture and preliminary testing of the ITER toroidal field (TF) magnet helium cold circulator",39.8005505,-105.0811573,2
Mohammadi S.,UNSW Sydney,Sydney,Australia,2015-12-01,H-adaptive updated lagrangian approach for large-deformation analysis of slope failure,-33.8698439,151.2082848,1
Tünnerhoff H.,Krankenhaus Marbach,Marbach am Neckar,Germany,2015-12-01,Clinical results of refixation of the triangular fibrocartilage complex,48.9402085,9.256396,0
Kublanov V.S.,Ural Federal University,Yekaterinburg,Russian Federation,2015-12-21,Principles of organization and control of multielectrode neuro-electrostimulation device,56.839104,60.60825,6
Al-Shammari E.T.,Kuwait University,Kuwait City,Kuwait,2015-12-09,Exploring the cognitive psychology paradigm of a programming language and identification of emotion under collective intelligence: an experience with an ant colony metaphor,29.3796532,47.9734174,0
Naseri S.,Petroleum University of Technology,Abadan,Iran,2015-12-17,Application of Radial Basis Function Neural Network for Prediction of Titration-Based Asphaltene Precipitation,30.3636097,48.2591475,0
Dambe S.,TCS Digital Enterprise,Unknown,India,2015-12-17,Statistical Heuristic Assessment a Tangible Way of Assessing Product or Software Current Usability State,26.49253305,92.33087891709364,7
Makwana K.,Indian Institute of Science Education and Research Bhopal,Bhopal,India,2015-12-01,Implications of aromatic-aromatic interactions: From protein structures to peptide models,23.2584857,77.401989,7
Adamov E.,The State Atomic Energy Corporation ROSATOM,Moscow,Russian Federation,2015-12-01,"Nuclear energy with inherent safety: Change of outdated paradigm, criteria",55.625578,37.6063916,0
Ma N.,Osaka University,Suita,Japan,2015-12-25,Investigation of welding residual stress in flash-butt joint of U71Mn rail steel by numerical simulation and experiment,34.7594193,135.516835,3
Wu X.,West China School of Medicine/West China Hospital of Sichuan University,Chengdu,China,2015-12-01,"Genipin-crosslinked, immunogen-reduced decellularized porcine liver scaffold for bioengineered hepatic tissue",30.6598628,104.0633717,3
Mangu D.M.,Ira A. Fulton Schools of Engineering,Tempe,United States,2015-12-02,Motivational factors predicting STEM and engineering career intentions for high school students,33.4255117,-111.940016,2
Del Mercato L.L.,Università del Salento,Lecce,Italy,2015-12-22,Ratiometric Organic Fibers for Localized and Reversible Ion Sensing with Micrometer-Scale Spatial Resolution,40.1522173,18.2260628338229,0
Winiwarter W.,Universität Wien,Vienna,Austria,2015-12-11,JAMRED - A Japanese abstract meaning representation EDitor,48.2083537,16.3725042,0
Chen J.,University of Chinese Academy of Sciences,Beijing,China,2015-12-01,Using simulation to evaluate error detection strategies: A case study of cloud-based deployment processes,40.190632,116.412144,3
Johari Y.,The University of Sheffield,Sheffield,United Kingdom,2015-12-01,"Integrated cell and process engineering for improved transient production of a ""difficult-to-express"" fusion protein by CHO cells",53.3806626,-1.4702278,0
Noran M.,Tenaga Nasional Berhad,Kuala Lumpur,Malaysia,2015-12-16,Adaptive breaker failure protection scheme for double busbar substation using IEC 61850 GOOSE message communication,3.1516964,101.6942371,5
Mobrand E.,National University of Singapore,Singapore City,Singapore,2015-12-01,The politics of regulating elections in South Korea: The persistence of restrictive campaign laws,1.2899175,103.8519072,5
Rizzatti C.L.,Pontifícia Universidade Católica do Paraná,Curitiba,Brazil,2015-12-28,Proposal for an image-based software system for dental implant positioning,-25.4295963,-49.2712724,4
Walter M.J.,University of Bristol,Bristol,United Kingdom,2015-12-15,The stability of hydrous silicates in Earth's lower mantle: Experimental constraints from the systems MgO-SiO<inf>2</inf>-H<inf>2</inf>O and MgO-Al<inf>2</inf>O<inf>3</inf>-SiO<inf>2</inf>-H<inf>2</inf>O,51.4538022,-2.5972985,0
Wahab N.A.A.,Universiti Teknologi Malaysia Kuala Lumpur,Kuala Lumpur,Malaysia,2015-12-22,Simulation study of electromagnetic circuit design in laminated magnetorheological elastomer isolator,3.1516964,101.6942371,5
Hosseini M.D.M.,University of Isfahan,Isfahan,Iran,2015-12-30,F plus KS: A new feature selection strategy for steganalysis,32.6707877,51.6650002,0
Ogunseye S.,"Memorial University of Newfoundland, Faculty of Business Administration",St John's,Canada,2015-12-08,What's to Learn from Unvalidated Sources of Health Information?,47.5614705,-52.7126162,8
Helkala K.,Norwegian Defence Cyber Academy,Lillehammer,Norway,2015-12-02,How the application of coping strategies can empower learning,61.1333408,10.426585544131411,0
Senthilkumar B.,Vellore Institute of Technology,Vellore,India,2015-12-01,Selection of effective and highly thermostable Bacillus subtilis lipase A template as an industrial biocatalyst-A modern computational approach,12.9021849,79.06110398623842,7
Zhang W.,Beihang University,Beijing,China,2015-12-24,Research on application of functional FMECA in reverse engineering optimization,40.190632,116.412144,3
Kameoka Y.,Tokai University,Tokyo,Japan,2015-12-29,Customer segmentation and visualization by combination of self-organizing map and cluster analysis,35.6768601,139.7638947,3
Jo Y.I.,Brandeis University,Waltham,United States,2015-12-01,CRISPR/Cas9 system as an innovative genetic engineering tool: Enhancements in sequence specificity and delivery methods,42.3756401,-71.2358004,2
Hopfmann C.,Technische Universität Berlin,Berlin,Germany,2015-12-03,Compensation of phonon-induced renormalization of vacuum Rabi splitting in large quantum dots: Towards temperature-stable strong coupling in the solid state with quantum dot-micropillars,52.510885,13.3989367,0
Barth J.M.,The University of Alabama,Tuscaloosa,United States,2015-12-01,Untangling Life Goals and Occupational Stereotypes in Men’s and Women’s Career Interest,33.2095614,-87.5675258,2
Rousi R.,University of Jyväskylä,Jyvaskyla,Finland,2015-12-02,Life-based design as an extension of problem-based learning - A tool for understanding people and technology,62.2417066,25.7495727,0
Chen J.,CAS Center for Excellence in Molecular Plant Sciences / Institute of Plant Physiology and Ecology,Shanghai,China,2015-12-01,Characterization of the chromosomal integration of Saccharopolyspora plasmid pCM32 and its application to improve production of spinosyn in Saccharopolyspora spinosa,31.2312707,121.4700152,3
Davis T.,FRCSE/ISSC,Jacksonville,United States,2015-12-14,Deploying an enterprise-class Software Lifecycle Management solution for Test Program Sets,30.3321838,-81.655651,2
Pandria N.,Aristotle University of Thessaloniki,Thessaloniki,Greece,2015-12-16,The future of mobile health ADHD applications: Projecting WHAAM application on future mobile health,40.6403167,22.9352716,0
Smith B.,Feinstein Institute for Medical Research,Manhasset,United States,2015-12-01,Immunology and cartilage regeneration,40.7956894,-73.6989103,2
Nguyen T.K.,BRGM,Orleans,France,2015-12-01,Integrating damage zone heterogeneities based on stochastic realizations of fracture networks for fault stability analysis,47.9027336,1.9086066,0
Uddin B.,Universität Heidelberg,Heidelberg,Germany,2015-12-21,Genome editing through large insertion leads to the skipping of targeted exon,49.4093582,8.694724,0
Francisco A.,London School of Hygiene &amp; Tropical Medicine,London,United Kingdom,2015-12-01,"Reply to ""Drug susceptibility of genetically engineered Trypanosoma cruzi strains and sterile cure in animal models as a criterion for potential clinical efficacy of anti-T. cruzi drugs""",51.5074456,-0.1277653,0
Yan J.P.,Southwest Petroleum University China,Chengdu,China,2015-12-10,The influence of low permeable sandstone pore structure on rock electrical parameters and its applications,30.6598628,104.0633717,3
Yu J.H.,Pusan National University,Busan,South Korea,2015-12-01,Improvement of structural design accuracy using a casting-structural interface (CSI) method in large-scale sand castings,35.1799528,129.0752365,3
Wang R.L.,National Space Science Center,Beijing,China,2015-12-01,Further study of space debris collision warning techniques in NSSC,40.190632,116.412144,3
Watkins S.,RMIT University,Melbourne,Australia,2015-12-01,"To wards autonomous MAV soaring in cities: CFD simulation, EFD measurement and flight trials",-37.8142454,144.9631732,1
Carroll T.E.,Pacific Northwest National Laboratory,Richland,United States,2015-12-14,Impact of network activity levels on the performance of passive network service dependency discovery,38.7060457,-88.0949352,2
Marris-Morini D.,Université Paris-Saclay,Gif-sur-Yvette,France,2015-12-11,Silicon photonics based on Ge/SiGe quantum well structures,48.7018823,2.134529,0
Sprada A.G.,Universidade Federal de Santa Maria,Santa Maria,Brazil,2015-12-01,Toxicity and oxidative stress of canine mesenchymal stromal cells from adipose tissue in different culture passages,-29.6860512,-53.8069214,4
Octaviano F.R.,Universidade Federal de São Carlos,Sao Carlos,Brazil,2015-12-01,Semi-automatic selection of primary studies in systematic literature reviews: is it reasonable?,-22.0180395,-47.891154,4
Patience P.A.,Polytechnique Montréal,Montreal,Canada,2015-12-01,How do you write and present research well? 2 -Replace 007 with an explicit agent,45.5031824,-73.5698065,2
Man Y.,South China University of Technology,Guangzhou,China,2015-12-01,"Modeling, simulation and analysis for coal and coke-oven gas to synthetic natural gas",23.1301964,113.2592945,3
Siano D.,Istituto Motori,Naples,Italy,2015-12-01,Acoustic optimization of a high-speed train composite sandwich panel based on analytical and experimental Transmission Loss evaluation integrated by FE/Test correlation analysis,40.8358846,14.2487679,0
Daud W.S.W.,Universiti Malaysia Perlis,Arau,Malaysia,2015-12-11,A review on classification methods for solving fully fuzzy linear systems,6.4307281,100.2718795,5
Pelton J.N.,Former Dean International Space University and Executive Board,Unknown,Unknown,2015-12-01,A 3 Point Action Agenda to Address Cosmic Hazards and Planetary Defense,12.4989994,124.67467412829455,-1
Scholtz A.,Technische Universität Chemnitz,Chemnitz,Germany,2015-12-11,Systematic composition of web-based applications with focus on security,50.8323531,12.918914,0
Thomas I.,Pevensey Coastal Defence Ltd,Unknown,United Kingdom,2015-12-01,Long-term loss of beach material from the Eastern English Channel,53.16917060617699,-4.1000956517182905,0
Dziedzic K.,Uniwersytet Rolniczy im. Hugona Kołłątaja w Krakowie,Krakow,Poland,2015-12-01,Impact of aerobic biostabilisation and biodrying process of municipal solid waste on minimisation of waste deposited in landfills,50.0469432,19.997153435836697,0
Stieff M.,University of Illinois at Chicago,Chicago,United States,2015-12-01,How Much Can Spatial Training Improve STEM Achievement?,41.8755616,-87.6244212,2
Diesburg S.,PATH,Seattle,United States,2015-12-02,"Development of a single-use, disposable, electricity-free, nucleic acid amplification platform",47.6038321,-122.330062,2
Zhu H.,Nantong University,Nantong,China,2015-12-28,PH-responsive hybrid quantum dots for targeting hypoxic tumor siRNA delivery,31.9827896,120.8904588,3
Larrañaga A.,Universidad del Pais Vasco,Leioa,Spain,2015-12-01,Effect of bioactive glass particles on osteogenic differentiation of adipose-derived mesenchymal stem cells seeded on lactide and caprolactone based scaffolds,43.3271048,-2.9846079,0
Moorkens J.,Dublin City University,Dublin,Ireland,2015-12-01,Correlations of perceived post-editing effort with measurements of actual effort,53.3493795,-6.2605593,0
Sundararaman N.,Virginia Tech College of Engineering,Blacksburg,United States,2015-12-12,ITAP: Integrated transcriptomics and phenotype database for stress response of Escherichia coli and Saccharomyces cerevisiae Bioinformatics,37.2296566,-80.4136767,2
Niwa T.,Institute of Science Tokyo,Tokyo,Japan,2015-12-15,Comprehensive study of liposome-assisted synthesis of membrane proteins using a reconstituted cell-free translation system,35.6768601,139.7638947,3
Dang Y.,Paul L. Foster School of Medicine,El Paso,United States,2015-12-15,Optimizing sgRNA structure to improve CRISPR-Cas9 knockout efficiency,31.7601164,-106.4870404,2
Hsiao H.,National Institute for Occupational Safety and Health,"Washington, D.C.",United States,2015-12-01,Firefighter Hand Anthropometry and Structural Glove Sizing: A New Perspective,38.8950368,-77.0365427,2
Shi Y.,Hebei University of Engineering,Handan,China,2015-12-01,Simultaneously Enhancing the Ductility and Strength in a Hierarchical and Multiphase Nanolaminated TiZrAlV,36.6107711,114.4857072,3
Zheng B.,The State Key Laboratory for Diagnosis and Treatment of Infectious Diseases,Hangzhou,China,2015-12-20,Complete genome sequence of Lactobacillus heilongjiangensis DSM 28069<sup>T</sup>: Insight into its probiotic potential,30.2489634,120.2052342,3
Mi G.,Lanzhou Jiaotong University,Lanzhou,China,2015-12-01,Advance trigger handover algorithm based on the speed in LTE-R,36.474436,103.733224,9
Idrees A.M.,Faculty of Computers and Information,Fayoum,Egypt,2015-12-29,Towards an automated evaluation approach for e-procurement,29.340737,30.620104467964623,0
McGillion B.,Aalto University,Espoo,Finland,2015-12-02,Open-TEE - An open virtual trusted execution environment,60.2047672,24.6568435,0
Feng Q.S.,Ministry of Education of the People's Republic of China,Beijing,China,2015-12-28,Influences of ballasted track and slab ballastless track structures on ground vibration of high speed railway,40.190632,116.412144,3
Corke H.,Hubei University of Technology,Wuhan,China,2015-12-17,Course Structures: Based on EFG Articles,30.5951051,114.2999353,3
Wang D.,Tianjin University of Science &amp; Technology,Tianjin,China,2015-12-01,Metabolic engineering of Saccharomyces cerevisiae for accumulating pyruvic acid,39.3032619,117.4163641,3
Pradilla J.,Universitat Politècnica de València,Valencia,Spain,2015-12-01,SOSLite: Lightweight Sensor Observation Service (SOS),39.4697065,-0.3763353,0
Astavin A.,NPO Lavochkin,Khimki,Russian Federation,2015-12-01,Development of precision structure of a large-size space radio telescope,55.8917293,37.4396994,0
Chimene D.,Texas A&amp;M University,College Station,United States,2015-12-02,Two-Dimensional Nanomaterials for Biomedical Applications: Emerging Trends and Future Prospects,30.6183939,-96.3455991,2
Romero M.,Université Laval,Quebec,Canada,2015-12-16,Digital game creation as a creative learning activity,53.78701075,-73.31569895762317,10
Costa P.F.,Technische Universität München,Munich,Germany,2015-12-30,Additive manufacturing of scaffolds with dexamethasone controlled release for enhanced bone regeneration,48.1371079,11.5753822,0
Gong K.,University of Delaware,Newark,United States,2015-12-01,"Nonaqueous redox-flow batteries: Organic solvents, supporting electrolytes, and redox pairs",40.735657,-74.1723667,2
Donohue S.K.,University of Virginia School of Engineering and Applied Science,Charlottesville,United States,2015-12-02,FIE 2015 special session - Movin' along: Investigating motion and mechanisms using engineering design activities,38.029306,-78.4766781,2
Iman M.,Ferdowsi University of Mashhad,Mashhad,Iran,2015-12-24,Quantitative evaluation of software usability with a fuzzy expert system,36.2974945,59.6059232,0
Holding T.,University of Exeter,Exeter,United Kingdom,2015-12-06,Maintenance of phenotypic diversity within a set of virulence encoding genes of the malaria parasite Plasmodium falciparum,50.7256138,-3.5269209,0
Jones B.D.,Virginia Polytechnic Institute and State University,Blacksburg,United States,2015-12-01,Elements of Design-Based Science Activities That Affect Students' Motivation,37.2296566,-80.4136767,2
Li P.,Télécom SudParis,Evry,France,2015-12-08,Automatic OpenCL code generation for multi-device heterogeneous architectures,48.6241665,2.4289667,0
Tran H.L.B.,"University of Science, Viet Nam National University Ho Chi Minh City",Ho Chi Minh City,Viet Nam,2015-12-01,Human dental pulp stem cells cultured onto dentin derived scaffold can regenerate dentin-like tissue in vivo,10.7763897,106.7011391,-1
Mohd Noor C.W.,Universiti Malaysia Pahang Al-Sultan Abdullah,Pekan,Malaysia,2015-12-22,Application of artificial neural network for prediction of marine diesel engine performance,3.4895509,103.390396,5
Furusawa K.,Hokkaido University,Sapporo,Japan,2015-12-14,Application of Multichannel Collagen Gels in Construction of Epithelial Lumen-like Engineered Tissues,43.061936,141.3542924,-1
Dokić O.,The Highway Institute,Belgrade,Serbia,2015-12-30,Influence of engineering properties on Polished Stone Value (PSV): A case study on basic igneous rocks from Serbia,44.8178131,20.4568974,0
Górecki W.,AGH University of Krakow,Krakow,Poland,2015-12-01,Atlases of geothermal waters and energy resources in Poland,50.0469432,19.997153435836697,0
Tuparov G.,South-West University Neofit Rilski,Blagoevgrad,Bulgaria,2015-12-16,Students' readiness for mobile learning in Republic of Yemen - A pilot study,41.750287,23.48734109762355,0
Kildegaard K.R.,The Novo Nordisk Foundation Center for Biosustainability,Lyngby,Denmark,2015-12-01,Production of 3-hydroxypropionic acid from glucose and xylose by metabolically engineered Saccharomyces cerevisiae,55.7718649,12.5051413,0
He L.,Jilin University,Changchun,China,2015-12-01,Fault tolerant control method of dual steering actuator motors for steer-by-wire system,43.8844201,125.3180998,3
Tedjakusuma V.,Delft University of Technology,Delft,Netherlands,2015-12-10,The role of human values in the design of a de facto standard,52.0114017,4.35839,0
Akıska S.,Ankara Üniversitesi,Ankara,Turkey,2015-12-01,DisChart: a new application for building and drawing discrimination diagrams using digitize method,39.7160439,32.7059948,0
Öztürk C.,Yıldız Teknik Üniversitesi,Istanbul,Turkey,2015-12-30,Efficient cartilage segmentation in high-field knee MR images with voxel-classification-driven region-growing algorithm,41.0766019,29.052495,0
Marbouti F.,Purdue University,West Lafayette,United States,2015-12-02,There's more than one way to analyze feedback on design,40.4258686,-86.9080655,2
Bungener S.,École Polytechnique Fédérale de Lausanne,Lausanne,Switzerland,2015-12-15,Multi-period analysis of heat integration measures in industrial clusters,46.5218269,6.6327025,0
Hong J.,Hunan Institute of Technology,Hengyang,China,2015-12-15,The effect of fiber loss on the phase noise of dual-loop injection-locked opto-electronic oscillator,26.8971308,112.5666191,3
Chen C.,Hong Kong Baptist University,Hong Kong,Hong Kong,2015-12-01,Total variation based tensor decomposition for multi-dimensional data with time dimension,22.2793278,114.1628131,3
King I.C.,University of Washington,Seattle,United States,2015-12-09,Precise assembly of complex beta sheet topologies from de novo designed building blocks,47.6038321,-122.330062,2
Baroud D.N.,"Notre Dame University, Lebanon",Zouk Mosbeh,Lebanon,2015-12-01,Encounters of discrete urban practices,33.9558528,35.6151627,0
Xia M.L.,Institute of Process Engineering Chinese Academy of Sciences,Beijing,China,2015-12-23,Periodic-peristole agitation for process enhancement of butanol fermentation,40.190632,116.412144,3
Kamran D.,Sharif University of Technology,Tehran,Iran,2015-12-30,HDL based simulation framework for a DPA secured embedded system,35.6892523,51.3896004,0
Mroczek E.,Uniwersytet Przyrodniczy w Poznaniu,Poznan,Poland,2015-12-02,Effect of residual monomer from polyacrylamide on head lettuce grown in peat substrate,52.4082663,16.9335199,0
Namazova-Baranova L.,National Medical Research Center for Children's Health,Moscow,Russian Federation,2015-12-21,"Remote monitoring of children with asthma, being treated in multidisciplinary hospital",55.625578,37.6063916,0
Hansen G.,Norges Teknisk-Naturvitenskapelige Universitet,Trondheim,Norway,2015-12-01,Offshore oil and gas firms' involvement in offshore wind: Technological frames and undercurrents,63.4304475,10.3952118,0
Thamizhmanii S.,International College of Automotive,Pekan,Malaysia,2015-12-22,Surface roughness and tool wear on cryogenic treated cbn insert on titanium and inconel 718 alloy steel,3.4895509,103.390396,5
Jeon H.,Hanyang University,Seoul,South Korea,2015-12-01,The effect of plasma power on the properties of low-temperature silicon nitride deposited by RPALD for a gate spacer,37.5666791,126.9782914,3
Klein A.,Western Washington University,Bellingham,United States,2015-12-30,An inquiry-based acoustic signal processing lab module for introducing digital communications,48.7544012,-122.478836,2
Pawlowski J.M.,Ruhr West University of Applied Sciences,Mulheim an der Ruhr,Germany,2015-12-01,Positive Computing: A New Trend in Business and Information Systems Engineering?,51.4272925,6.8829192,0
Scislowska-Czarnecka A.,Akademia Wychowania Fizycznego im. Bronisława Czecha w Krakowie,Krakow,Poland,2015-12-01,Oxygen plasma surface modification augments poly(L-lactide-co-glycolide) cytocompatibility toward osteoblasts and minimizes immune activation of macrophages,50.0469432,19.997153435836697,0
Tang X.,Nanjing University of Aeronautics and Astronautics,Nanjing,China,2015-12-10,Damage mechanism of typical metal engineering materials in fusion reactor under irradiation,32.0438284,118.7788631,3
Ceriani N.M.,"Tenaris, Italy",Dalmine,Italy,2015-12-01,Reactive Task Adaptation Based on Hierarchical Constraints Classification for Safe Industrial Robots,45.6472193,9.6019202,0
Gasca-Hurtado G.P.,Universidad de Medellín,Medellin,Colombia,2015-12-01,Virtual Reality as good practice for teamwork with engineering students,6.269732449999999,-75.60255965090315,11
Liu C.,Sinopec,Beijing,China,2015-12-28,"Formation and preservation mechanism of sweet spot in tight clastic reservoirs -A case study of Chang 8 oil layer of Yanchang Formation in Zhenjing area, southwest Ordos Basin",40.190632,116.412144,3
Kunkel S.A.,Armour College of Engineering,Chicago,United States,2015-12-04,Engineering of Nitrosomonas europaea to express Vitreoscilla hemoglobin enhances oxygen uptake and conversion of ammonia to nitrite,41.8755616,-87.6244212,2
Rivero R.E.,Universidad Nacional de Rio Cuarto,Rio Cuarto,Argentina,2015-12-01,Effect of functional groups on physicochemical and mechanical behavior of biocompatible macroporous hydrogels,-33.1237585,-64.3489782,17
Gatan S.,Riga Technical University,Riga,Latvia,2015-12-28,The modern methods for designing of medium voltage switchboards technology of power plant's refineries: Technical Solution for Double Bus-bar Systems,56.9493977,24.1051846,0
Brown J.A.,Vanderbilt University Medical Center,Nashville,United States,2015-12-01,Inhibition of parvalbumin-expressing interneurons results in complex behavioral changes,36.1622767,-86.7742984,2
Liu J.,China University of Mining and Technology,Xuzhou,China,2015-12-01,Applications of catastrophe theory in engineering: A review,34.2665258,117.1810431,3
Vemulapati U.,ABB Group,Zurich,Switzerland,2015-12-01,Reverse blocking IGCT optimised for 1 kV DC bi-directional solid state circuit breaker,47.3744489,8.5410422,0
Lini Dev K.,Indian Institute of Technology Madras,Chennai,India,2015-12-01,Pond Ash Based Controlled Low Strength Flowable Fills for Geotechnical Engineering Applications,13.0836939,80.270186,7
Amor-Martin A.,Microwaves and Antennas Group,Unknown,Spain,2015-12-01,Posidonia: A Tool for HPC and Remote Scientific Simulations [EM Programmer's Notebook],39.543762,2.723720218073191,0
Liu W.,Department of Structural Engineering,La Jolla,United States,2015-12-01,Seismic Behavior of Frame-Wall-Rocking Foundation Systems. I: Test Program and Slow Cyclic Results,32.8401623,-117.2740777,2
Zakhem E.,Wake Forest University School of Medicine,Winston Salem,United States,2015-12-01,Successful implantation of an engineered tubular neuromuscular tissue composed of human cells and chitosan scaffold,36.0998131,-80.2440518,2
Świerczek B.,University of Warsaw,Warsaw,Poland,2015-12-01,From pluripotency to myogenesis: a multistep process in the dish,52.2319581,21.0067249,0
Li F.,Beijing Institute of Technology,Beijing,China,2015-12-02,Virtual experiments for introduction of computing: Using virtual reality technology,40.190632,116.412144,3
Hu M.,Oak Ridge National Laboratory,Oak Ridge,United States,2015-12-01,Semiconductor Nanocrystal Quantum Dot Synthesis Approaches Towards Large-Scale Industrial Production for Energy Applications,36.0103562,-84.2696449,2
Kumar R.,"Maharishi Markandeshwar (Deemed to be University), Mullana",Ambala,India,2015-12-01,Cost analysis of a coal-fired power plant using the NPV method,30.3843674,76.770421,7
Guha S.,Indian Institute of Technology Delhi,New Delhi,India,2015-12-01,Revisiting robustness in priced timed games,28.64308585,77.21926705734865,7
Moses S.,Brigham Young University,Provo,United States,2015-12-16,The SNAP principle for mitigating privileged account breaches: How secondary non-admin privileged accounts can reduce breach impact,40.2337289,-111.6587085,2
Leleux J.,Wallace H. Coulter Department of Biomedical Engineering,Atlanta,United States,2015-12-10,Engineering immunity: Modulating dendritic cell subsets and lymph node response to direct immune-polarization and vaccine efficacy,33.7489924,-84.3902644,2
Roan E.,University of Memphis,Memphis,United States,2015-12-23,Dichotomy of Tenure and Biomedical Engineering Research with a Purpose in an Academic Setting,35.1460249,-90.0517638,2
Sowade E.,Technische Universität Chemnitz,Chemnitz,Germany,2015-12-24,Inkjet Printing of Colloidal Nanospheres: Engineering the Evaporation-Driven Self-Assembly Process to Form Defined Layer Morphologies,50.8323531,12.918914,0
Maji P.,"Indian Statistical Institute, Kolkata",Kolkata,India,2015-12-09,SoBT-RFW: Rough-fuzzy computing and wavelet analysis based automatic brain tumor detection method from MR images,22.5726459,88.3638953,7
Elliott D.C.,Pacific Northwest National Laboratory,Richland,United States,2015-12-18,Transportation Fuels from Biomass via Fast Pyrolysis and Hydroprocessing,38.7060457,-88.0949352,2
Saliba A.E.,Julius-Maximilians-Universität Würzburg,Wurzburg,Germany,2015-12-01,The systematic analysis of protein-lipid interactions comes of age,49.7780356,9.94347690712558,0
Zhang Y.,Beihang University,Beijing,China,2015-12-24,A method of fault tree generation based on go model,40.190632,116.412144,3
Liu W.,Shanghai Jiao Tong University School of Medicine,Shanghai,China,2015-12-01,Regulation Policy on Tissue Engineering and Regenerative Medicine in Asian-Pacific Region,31.2312707,121.4700152,3
Baïri A.,Laboratoire de Thermique Interfaces et Environnement,Nanterre,France,2015-12-01,Effects of the wire-bonding technique on the QFN16b's thermal performance. New correlations for the free convective heat transfer coefficient,48.8924273,2.2071267,0
Ravikumar Y.,Yeungnam University,Gyeongsan,South Korea,2015-12-01,Incorporating unnatural amino acids to engineer biocatalysts for industrial bioprocess applications,35.825122,128.741329,3
Martin-Gutierrez J.,Universidad de la Laguna,San Cristobal de La Laguna,Spain,2015-12-02,Managing first PBL experiences: Cross competences in a traditional environment,28.4857715,-16.3159422,-1
Pearson J.,Amgen Incorporated,Thousand Oaks,United States,2015-12-01,Bioanalytical approaches to assess the proteolytic stability of therapeutic fusion proteins,34.1705609,-118.8375937,2
van Eck D.,Universiteit Gent,Ghent,Belgium,2015-12-01,Validating Function-Based Design Methods: an Explanationist Perspective,51.0538286,3.7250121,0
Liu W.R.,Tianjin Navigation Instrument Research Institute,Tianjin,China,2015-12-01,Pretreatment method for marine-radar video transmission over a network,39.3032619,117.4163641,3
Fan C.,Jiangnan University,Wuxi,China,2015-12-01,Engineering of Alicyclobacillus hesperidum l-Arabinose Isomerase for Improved Catalytic Activity and Reduced pH Optimum Using Random and Site-Directed Mutagenesis,31.5776626,120.2952752,3
El Faquih L.,Ecole Nationale Supérieure d'Informatique et d'Analyse des Systèmes,Rabat,Morocco,2015-12-15,Configurable process models: A semantic validation,34.02236,-6.8340222,0
Xie H.,State Key Laboratory of Advanced Design and Manufacturing for Vehicle Body,Changsha,China,2015-12-28,Fatigue analysis and structure optimization design on punch of high strength steel stamping die,28.1450774,113.2384362,3
Sueyoshi T.,New Mexico Institute of Mining and Technology,Socorro,United States,2015-12-01,Comparison among U.S. industrial sectors by DEA environmental assessment: Equipped with analytical capability to handle zero or negative in production factors,34.0572858,-106.8930799,2
Farhang P.,"University of Southern Denmark, Sønderborg",Sonderborg,Denmark,2015-12-01,New technique for voltage tracking control of a boost converter based on the PSO algorithm and LTspice,54.9089186,9.7897999,0
Dehkordi M.,"Islamic Azad University, Shahrekord Branch",Shahr-e Kord,Iran,2015-12-01,Deletion of Salmonella enterica serovar typhimurium sipC gene,32.3257366,50.8497369,0
Jendrej J.,Centre de Mathématiques Laurent Schwartz Ecole Polytechnique,Palaiseau,France,2015-12-29,On some extensions of the FKN theorem,48.7144587,2.2453842,0
Bodnar E.,University of Manitoba,Winnipeg,Canada,2015-12-01,Mass spectrometric analysis of products of metabolic glycan engineering with azido-modification of sialic acids,49.8955367,-97.1384584,2
Kang X.,Hefei University of Technology,Hefei,China,2015-12-15,Study on the building structural overlapping decentralized control based on energy-to-peak control algorithm,31.8665676,117.281428,3
Garyfallidou D.,University of Patras,Rio,Greece,2015-12-16,"Everyday devices taught and explained to primary school children by following the energy transformations, using web-based software",38.2981583,21.7775953,0
Velusamy T.,Ulster University,Coleraine,United Kingdom,2015-12-30,Varying Surface Chemistries for p-Doped and n-Doped Silicon Nanocrystals and Impact on Photovoltaic Devices,55.1315912,-6.671861,0
Hu Y.,University College London,London,United Kingdom,2015-12-01,Population-based prediction of subject-specific prostate deformation for MR-to-ultrasound image registration,51.5074456,-0.1277653,0
Giones F.,La Salle,Barcelona,Spain,2015-12-10,Do great technological ideas make great business opportunities? Entrepreneur's self-regulatory focus in opportunity building,41.3828939,2.1774322,0
Kashchenko A.A.,Yaroslavl State University,Yaroslavl,Russian Federation,2015-12-01,Analysis of running waves stability in the Ginzburg–Landau equation with small diffusion,57.6263877,39.8933705,0
Hitchcock J.M.,College of Engineering and Physical Sciences,Laramie,United States,2015-12-01,On the NP-completeness of the Minimum Circuit Size Problem,41.3116442,-105.5917876,2
Wu I.C.,National Kaohsiung University of Science and Technology,Kaohsiung,Taiwan,2015-12-01,A BIM-based monitoring system for urban deep excavation projects,22.6203348,120.3120375,3
Wu H.,Indiana University School of Informatics and Computing,Indianapolis,United States,2015-12-02,Bioinformatics curriculum development and skill sets for bioinformaticians,39.7683331,-86.1583502,2
Li J.,Huazhong University of Science and Technology,Wuhan,China,2015-12-01,Emergent computation: an overview,30.5951051,114.2999353,3
Turner T.,The University of New Mexico,Albuquerque,United States,2015-12-01,Retrospective stable isotope analysis reveals ecosystem responses to river regulation over the last century,35.0841034,-106.650985,2
Wang S.Y.,Ningbo University,Ningbo,China,2015-12-23,Aging models and parameters of quartz crystal resonators and oscillators,29.8622194,121.6203873,3
Yin J.,Northwest A&amp;F University,Yangling,China,2015-12-25,Experimental study on shapes of stilling basin combined with flaring gate piers,31.7574228,105.7158051,3
Kulik E.,Bayerischen Geoinstitut Forschungsinstitut für Experimentelle Geochemie und Geophysik,Bayreuth,Germany,2015-12-01,A Complete Solid Solution with Rutile-Type Structure in SiO<inf>2</inf>-GeO<inf>2</inf> System at 12 GPa and 1600°C,49.9427202,11.5763079,0
Ng J.W.P.,Etisalat British Telecom (BT) Innovation Center,Abu Dhabi,United Arab Emirates,2015-12-02,International iCampus Forum (IC15) on 'smart education in smart cities',24.4538352,54.3774014,0
Liste-Calleja L.,Universitat Autònoma de Barcelona,Cerdanyola del Valles,Spain,2015-12-01,Lactate and glucose concomitant consumption as a self-regulated pH detoxification mechanism in HEK293 cell cultures,41.4910324,2.1374969,0
Kangwa M.,Constructor University,Bremen,Germany,2015-12-01,High-level fed-batch fermentative expression of an engineered Staphylococcal protein A based ligand in E. coli: purification and characterization,53.0758196,8.8071646,0
Brown J.,Carollo Engineers,Boise,United States,2015-12-01,Biological drinking water treatment? Naturally,43.6166163,-116.200886,2
Soponpongpipat N.,Silpakorn University,Nakhon Pathom,Thailand,2015-12-01,Higher heating value prediction of torrefaction char produced from non-woody biomass,13.8918425,100.0165659,12
Gao J.,"Hualu Engineering and Technology Co., Ltd.",Xi'an,China,2015-12-01,A model of heater loss and wall temperature of heat exchanger,34.261004,108.9423363,3
Kovalevsky V.,"Institute of Computational Mathematics and Mathematical Geophysics, Siberian Branch of the Russian Academy of Sciences",Novosibirsk,Russian Federation,2015-12-21,A computer information system for genetic data analysis on the basis of a permutation test,54.96781445,82.95159894278376,13
Shen L.,National University of Singapore,Singapore City,Singapore,2015-12-24,A resilience assessment framework for critical infrastructure systems,1.2899175,103.8519072,5
Leibowicz B.D.,Stanford Engineering,Stanford,United States,2015-12-01,Growth and competition in renewable energy industries: Insights from an integrated assessment model with strategic firms,37.427467,-122.1702445,2
Yang M.,Hunan University,Changsha,China,2015-12-01,Bearing performance of new uplift anchor with side branches,28.1450774,113.2384362,3
Yao F.,Tsinghua University,Beijing,China,2015-12-03,"Nanodomain engineered (K, Na)NbO<inf>3</inf> lead-free piezoceramics: Enhanced thermal and cycling reliabilities",40.190632,116.412144,3
Zschoche R.,ETH Zürich,Zurich,Switzerland,2015-12-30,Diffusion-Limited Cargo Loading of an Engineered Protein Container,47.3744489,8.5410422,0
Abd Malek N.M.S.,Universiti Malaysia Pahang Al-Sultan Abdullah,Pekan,Malaysia,2015-12-22,Critical evaluation on structural stiffness of porous cellular structure of cobalt chromium alloy,3.4895509,103.390396,5
Erickson A.E.,UW College of Engineering,Seattle,United States,2015-12-10,High-throughput and high-yield fabrication of uniaxially-aligned chitosan-based nanofibers by centrifugal electrospinning,47.6038321,-122.330062,2
Lackner D.H.,Vienna Biocenter,Vienna,Austria,2015-12-17,A generic strategy for CRISPR-Cas9-mediated gene tagging,48.2083537,16.3725042,0
Liu X.,Shanghai University of Engineering Science,Shanghai,China,2015-12-01,Reliability Reallocation for Fuel Cell Vehicles Based on Genetic Algorithm,31.2312707,121.4700152,3
Golpayegani D.,Shahid Beheshti University,Tehran,Iran,2015-12-30,Making a tradeoff between adaptation and integration in adaptive service based systems,35.6892523,51.3896004,0
Maleki E.,Sharif University of Technology - International Campus Kish Island,Kish Island,Iran,2015-12-09,Artificial neural networks application for modeling of friction stir welding effects on mechanical properties of 7075-T6 aluminum alloy,26.53608825,53.96877103832208,0
Bonifati A.,Université Claude Bernard Lyon 1,Villeurbanne,France,2015-12-01,Learning join queries from user examples,45.7733573,4.8868454,0
Ardit M.,University of Ferrara,Ferrara,Italy,2015-12-09,Compressibility of orthorhombic perovskites. the effect of transition metal ions (TMI),44.76676425,11.827938995640167,0
Takeda T.,University of Fukui,Fukui,Japan,2015-12-31,"Preface of the ""Symposium on Advances in Computational Methods of Nuclear Engineering""",35.9263502,136.6068127,3
Luan G.,Qingdao Institute of Bioenergy and Bioprocess Technology,Qingdao,China,2015-12-25,Comparative genome analysis of a thermotolerant Escherichia coli obtained by Genome Replication Engineering Assisted Continuous Evolution (GREACE) and its parent strain provides new understanding of microbial heat tolerance,36.0637967,120.3192081,3
Noorani M.,University of Tabriz,Tabriz,Iran,2015-12-28,Design and fabrication of a worm robot prototype,38.0738612,46.2978789,0
Conchon A.,Université Paris 1 Panthéon-Sorbonne,Paris,France,2015-12-16,La corvée. Measuring the efficiency of compulsory work on public roads in the eighteenth century,48.8588897,2.3200410217200766,0
Tortum A.,Atatürk Üniversitesi,Erzurum,Turkey,2015-12-01,Spatial analysis of road mortality rates in Turkey,39.90632,41.2727715,0
Zamri K.Y.,Brunel University London,Uxbridge,United Kingdom,2015-12-16,10 user interface elements for mobile learning application development,51.5449509,-0.4816672,0
Marin I.,CTIC Foundation,Gijon,Spain,2015-12-01,Generating native user interfaces for multiple devices by means of model transformation,43.5449422,-5.66275,0
Střelec M.,University of West Bohemia,Plzen,Czech Republic,2015-12-01,Probabilistic assessment of the impact of dispersed generation on voltage quality,49.7477415,13.3775249,0
Coblenz M.,School of Computer Science,Pittsburgh,United States,2015-12-14,A course-based usability analysis of Cilk Plus and OpenMP,40.4416941,-79.9900861,2
Slaughter C.,Augusta University,Augusta,United States,2015-12-01,Article watch: December 2015,33.4709714,-81.9748429,2
Gu X.,Nantong University,Nantong,China,2015-12-01,Progress and perspectives of neural tissue engineering,31.9827896,120.8904588,3
Mahmood S.,University of Engineering and Technology Taxila,Taxila,Pakistan,2015-12-10,"Innovative system to determine hidden cost of poor quality to enhance labor productivity and profitability for construction entrepreneurs, a case study",33.7474551,72.8073364,7
Chalfant J.,Massachusetts Institute of Technology,Cambridge,United States,2015-12-01,Early-Stage Design for Electric Ship,42.3656347,-71.1040018,2
Ballatore A.,"University of California, Santa Barbara",Santa Barbara,United States,2015-12-02,Conceptualising the geographic world: the dimensions of negotiation in crowdsourced cartography,34.4221319,-119.702667,2
Tang H.,Beihang University,Beijing,China,2015-12-24,Mission reliability analysis of Man-machine system,40.190632,116.412144,3
Ujor V.,Ohio Agricultural Research and Development Center,Wooster,United States,2015-12-05,Butanol production from inulin-rich chicory and Taraxacum kok-saghyz extracts: Determination of sugar utilization profile of Clostridium saccharobutylicum P262,40.7980976,-81.9397733,2
Katoch J.,The Ohio State University,Columbus,United States,2015-12-01,Adatom-induced phenomena in graphene,39.9622601,-83.0007065,2
Siltanen P.,Teknologian Tutkimuskeskus VTT,Espoo,Finland,2015-12-10,Gaze-aware video conferencing application for multiparty collaboration,60.2047672,24.6568435,0
Lei P.,Xiangya Hospital Central South University,Changsha,China,2015-12-01,A new method for xenogeneic bone graft deproteinization: Comparative study of radius defects in a rabbit model,28.1450774,113.2384362,3
An W.,Charité – Universitätsmedizin Berlin,Berlin,Germany,2015-12-01,Engineering FKBP-based destabilizing domains to build sophisticated protein regulation systems,52.510885,13.3989367,0
Avni G.,Hebrew University of Jerusalem,Jerusalem,Israel,2015-12-01,Congestion games with multisets of resources and applications in synthesis,31.7788242,35.2257626,0
Muñiz-Rodríguez F.,Recinto Universitario de Mayagüez,Mayaguez,Puerto Rico,2015-12-02,Optimal control design and implementation for the double inverted pendulum system in a graduate control course,18.21163545,-67.0953571846176,14
Lin Z.,University of Chinese Academy of Sciences,Beijing,China,2015-12-25,Improvement of butanol production by Escherichia coli via Tn5 transposon mediated mutagenesis,40.190632,116.412144,3
Li Y.H.,Zhengzhou University,Zhengzhou,China,2015-12-01,Bearing deformation of large-diameter and super-long bored piles based on pile shaft generalized shear model,34.7533392,113.6599983,3
Ho T.Y.,National Tsing Hua University,Hsinchu,Taiwan,2015-12-14,Cyber-physical integration in programmable microfluidic biochips,24.8066333,120.9686833,3
Xu Q.,Research Institute of Petroleum Exploration and Development,Beijing,China,2015-12-28,New evaluation indicators of commingled production for ultra-low permeability reservoirs,40.190632,116.412144,3
Zaitsev V.,ORT Braude - College of Engineering,Karmiel,Israel,2015-12-11,Locust-inspired miniature jumping robot,32.9159104,35.293429,0
Meng Y.,Southwest Petroleum University China,Chengdu,China,2015-12-01,Analysis on the nitrogen drilling accident of Well Qionglai 1 (II): Restoration of the accident process and lessons learned,30.6598628,104.0633717,3
Rockwood D.,University of Hawaiʻi at Mānoa,Honolulu,United States,2015-12-01,Design and prototyping of a FRCC modular and climate responsive affordable housing system for underserved people in the pacific island nations,21.304547,-157.855676,-1
Moghaddam E.,Materials and Energy Research Centre Iran,Karaj,Iran,2015-12-14,Photoluminescence investigation of ZnO quantum dots surface modified with silane coupling agent as a capping agent,35.8224892,50.9904681,0
Aloulou A.,CNRS Centre National de la Recherche Scientifique,Paris,France,2015-12-01,Yarrowia lipolytica Lipase 2 Is Stable and Highly Active in Test Meals and Increases Fat Absorption in an Animal Model of Pancreatic Exocrine Insufficiency,48.8588897,2.3200410217200766,0
Georgiev G.,Energy Solutions Centre,Varna,Bulgaria,2015-12-01,Factorization of a characteristic polynomial by random search one of its trinomial divisors,43.2052135,27.860202452255194,0
Zafar M.S.,Taibah University,Medina,Saudi Arabia,2015-12-01,Oral tissue engineering progress and challenges,24.471153,39.6111216,15
Giraldo S.,Catalonia Institute for Energy Research IREC,Barcelona,Spain,2015-12-14,Large performance improvement in Cu2ZnSnSe4 based solar cells by surface engineering with a nanometric Ge layer,41.3828939,2.1774322,0
You T.,Shanghai Institute of Microsystem and Information Technology Chinese Academy of Sciences,Shanghai,China,2015-12-22,Engineering interface-type resistive switching in BiFeO<inf>3</inf> thin film switches by Ti implantation of bottom electrodes,31.2312707,121.4700152,3
Sims I.,RSK Group Limited,Helsby,United Kingdom,2015-12-01,Editorial,53.275304950000006,-2.766054108571064,0
Pham D.,University of Birmingham,Birmingham,United Kingdom,2015-12-31,Celebrating 100 articles published in Cogent Engineering,52.4796992,-1.9026911,0
Ravel M.,Franklin W. Olin College of Engineering,Needham,United States,2015-12-02,Evolving engineering education for social innovation and humanitarian impact - Lessons learned across a range of models,42.2802645,-71.2360624,2
Long A.H.,National Cancer Institute (NCI),Rockville,United States,2015-12-01,Chimeric Antigen Receptors for Cancer: Progress and Challenges,39.0817985,-77.1516844,2
Kabashkin I.,Transport and telecommunication institute,Riga,Latvia,2015-12-24,Reliability of bidirectional V2X communications in the intelligent transport systems,56.9493977,24.1051846,0
Eldred M.,North Charleston,Unknown,United States,2015-12-01,Held Captive in the Cyberworld [Fiction],33.79932715,-84.27586878426906,2
Edgeworth M.J.,"MedImmune, Inc.",Gaithersburg,United States,2015-12-07,Global and Local Conformation of Human IgG Antibody Variants Rationalizes Loss of Thermodynamic Stability,39.1399187,-77.1929215,2
Benevenuto F.,Universidade Federal de Minas Gerais,Belo Horizonte,Brazil,2015-12-01,How connected are the ACM SIG communities?,-19.9227318,-43.9450948,4
Lee C.Y.,LungHwa University of Science and Technology,Taoyuan,Taiwan,2015-12-01,Area-efficient subquadratic space-complexity digit-serial multiplier for type-II optimal normal basis GF(2<sup>m</sup>) using symmetric TMVP and block recombination techniques,24.9929995,121.3010003,3
Rees S.,Natural England,York,United Kingdom,2015-12-01,Conservation of coastal soft cliffs in England 2002–2013,53.96565785,-1.0743052444639218,0
Karahaliloʇlu Z.,Hacettepe Üniversitesi,Ankara,Turkey,2015-12-01,Antibacterial nanostructured polyhydroxybutyrate membranes for guided bone regeneration,39.7160439,32.7059948,0
Wang Y.,Shanghai University of Electric Power,Shanghai,China,2015-12-18,Study on the combination measures of the lightning back-striking protection for 110 kV six-circuit transmission lines on the same tower,31.2312707,121.4700152,3
Salzman N.,College of Engineering,Boise,United States,2015-12-02,Effects of pre-college engineering participation on first-year engineering outcomes,43.6166163,-116.200886,2
Aubonnet T.,Conservatoire National des Arts et Metiers,Paris,France,2015-12-27,Management of service compositionbased on self-controlled components,48.8588897,2.3200410217200766,0
Zscharnack M.,Fraunhofer Institute for Cell Therapy and Immunology IZI,Leipzig,Germany,2015-12-12,Preclinical good laboratory practice-compliant safety study to evaluate biodistribution and tumorigenicity of a cartilage advanced therapy medicinal product (ATMP),51.3406321,12.3747329,0
Vuoristo K.,Wageningen University &amp; Research,Wageningen,Netherlands,2015-12-25,Metabolic engineering of the mixed-acid fermentation pathway of Escherichia coli for anaerobic production of glutamate and itaconate,51.9663016,5.6662814,0
Kellathur S.,"Health Sciences Authority, Government of Singapore",Singapore City,Singapore,2015-12-01,Regulation of Cell- and Tissue-Based Therapeutic Products in Singapore,1.2899175,103.8519072,5
Williams D.,Wake Forest University School of Medicine,Winston Salem,United States,2015-12-01,The Same but Different: Regulation of Tissue Engineering and Regenerative Medicine in the Context of Regional and International Standards and Expectations,36.0998131,-80.2440518,2
Tohidi B.,Heriot-Watt University,Edinburgh,United Kingdom,2015-12-17,The Return of Kinetic Hydrate Inhibitors,55.9533456,-3.1883749,0
Nishikitani Y.,Waseda University,Tokyo,Japan,2015-12-31,White Polymer Light-Emitting Electrochemical Cells Fabricated Using Energy Donor and Acceptor Fluorescent π-Conjugated Polymers Based on Concepts of Band-Structure Engineering,35.6768601,139.7638947,3
Zhang C.,University of Calgary,Calgary,Canada,2015-12-11,A nucleolar PUF RNA-binding protein with specificity for a unique RNA sequence,51.0456064,-114.057541,2
Iwata T.,Tokyo Women's Medical University,Tokyo,Japan,2015-12-01,Cell Sheets for Periodontal Tissue Engineering,35.6768601,139.7638947,3
Levy M.,Shenkar,Ramat Gan,Israel,2015-12-28,A gradual approach to crowd-based requirements engineering: The case of conference online social networks,32.0686867,34.8246812,0
Mazziotti A.,Università degli Studi di Napoli Federico II,Naples,Italy,2015-12-31,Modal dynamic analysis of masonry churches,40.8358846,14.2487679,0
Mina M.,College of Engineering,Ames,United States,2015-12-02,Case for reflection in engineering education- and an alternative,42.0267567,-93.6170448,2
Glapiński J.,Politechnika Wrocławska,Wroclaw,Poland,2015-12-01,Analysis of the method for ventilation heterogeneity assessment using the Otis model and forced oscillations,51.1089776,17.0326689,0
Pyne M.,Concordia University,Montreal,Canada,2015-12-01,Antisense-RNA-mediated gene downregulation in clostridium pasteurianum,45.5031824,-73.5698065,2
Mashi S.A.,University of Abuja,Abuja,Nigeria,2015-12-01,"Causes and consequences of gully erosion: perspectives of the local people in Dangara area, Nigeria",9.0643305,7.4892974,-1
Su Y.,Shandong University,Jinan,China,2015-12-20,Migrativity property for uninorms and semi t-operators,36.6519754,117.1138479,3
Xue Y.,Nanjing University of Science and Technology,Nanjing,China,2015-12-25,Simplification of optimization and coordination algorithm for trajectory-driven load-shedding placement,32.0438284,118.7788631,3
Naciri S.,Ecole Nationale Supérieure d'Informatique et d'Analyse des Systèmes,Rabat,Morocco,2015-12-15,A strategic release planning model from TPM point of view,34.02236,-6.8340222,0
Furukawa T.,National Institute of Science and Technology Policy,Tokyo,Japan,2015-12-10,Visualizing the evolution of bioinformatics: Chronological networks created by textual analysis of intelligent systems for molecular biology 1998-2006,35.6768601,139.7638947,3
Guerrero F.G.,"Universidad del Valle, Cali",Cali,Colombia,2015-12-07,A constraint programming based web application for spectrum allocation engineering,3.4519988,-76.5325259,11
Mazzelli F.,Università degli Studi di Firenze,Florence,Italy,2015-12-05,Performance analysis of a supersonic ejector cycle working with R245fa,43.7697955,11.2556404,0
Bae S.,Korea Advanced Institute of Science and Technology,Daejeon,South Korea,2015-12-16,Exogenous Gene Integration for Microalgal Cell Transformation Using a Nanowire-Incorporated Microdevice,36.3497007,127.3849016,3
Gülci S.,Kahramanmaras Sütçü Imam Üniversitesi,Kahramanmaras,Turkey,2015-12-01,Assessment of ecological passages along road networks within the Mediterranean forest using GIS-based multi criteria evaluation approach,37.7830345,36.830655,0
Paez J.I.,Max Planck Institute for Polymer Research,Mainz,Germany,2015-12-14,Gauging and Tuning Cross-Linking Kinetics of Catechol-PEG Adhesives via Catecholamine Functionalization,49.9995205,8.2736253,0
Jordan S.,Ira A. Fulton Schools of Engineering,Tempe,United States,2015-12-02,Is the engineer of 2035 a maker?,33.4255117,-111.940016,2
Laifa M.,Université Mohamed El Bachir El Ibrahimi de Bordj Bou Arréridj,Bordj bou Arreridj,Algeria,2015-12-16,Trust and forgiveness in virtual teams: A study in Algerian e-learning context,36.09620285,4.660274234539607,0
Ling S.,Hong Kong University of Science and Technology,Hong Kong,Hong Kong,2015-12-01,Frontiers in time series and financial econometrics: An overview,22.2793278,114.1628131,3
Blackburn M.,École Polytechnique Fédérale de Lausanne,Lausanne,Switzerland,2015-12-23,Integrating gene synthesis and microfluidic protein analysis for rapid protein engineering,46.5218269,6.6327025,0
Chen A.,GlobalFoundires,Santa Clara,United States,2015-12-01,Feasibility Analysis of High-Density Spin-Transfer-Torque Random-Access-Memory with Shared Access Transistor Structure,37.3541132,-121.955174,2
Chae D.K.,Hanyang University,Seoul,South Korea,2015-12-01,Effective and efficient detection of software theft via dynamic API authority vectors,37.5666791,126.9782914,3
Polzer S.,"Brno University of Technology, Faculty of Mechanical Engineering",Brno,Czech Republic,2015-12-06,Biomechanical rupture risk assessment of abdominal aortic aneurysms based on a novel probabilistic rupture risk index,49.1922443,16.6113382,0
Isa S.,Universiti Putra Malaysia,Serdang,Malaysia,2015-12-14,Numerical solution of fuzzy differential equations by multistep block method,3.0340649,101.7055684,5
Opocenska H.,Brno University of Technology,Brno,Czech Republic,2015-12-01,Contribution to maintenance issues in company practice,49.1922443,16.6113382,0
Dev N.,"J.C. Bose University of Science and Technology, YMCA",Faridabad,India,2015-12-01,Performance analysis of combined cycle power plant,28.4031478,77.3105561,7
Beryozkina S.,Riga Technical University,Riga,Latvia,2015-12-01,Research and simulation of overhead power line uprating using advanced conductors,56.9493977,24.1051846,0
Raveendran P.,Mahath Amma Institute of Engineering and Technology,Pudukkottai,India,2015-12-01,Multi-response optimization of turning parameters for machining glass fiber-reinforced plastic composite rod,10.2903072,78.81736165831396,7
Zulkifli S.,Universiti Teknologi PETRONAS,Seri Iskandar,Malaysia,2015-12-22,Design and development of split-parallel through-the road retrofit hybrid electric vehicle with in-wheel motors,4.3612524,100.9508728,5
Islam A.,Michigan State University,East Lansing,United States,2015-12-28,Back translated peptide K-mer search and local alignment in large DNA sequence databases using BoND-SD-tree indexing,42.7320307,-84.4721678,2
Jung G.U.,Ewha Womans University Mokdong Hospital,Seoul,South Korea,2015-12-01,The effects of platelet-rich plasma on the proliferation and release of growth factors from periodontal ligament cells,37.5666791,126.9782914,3
Swidergal K.,Ostbayerische Technische Hochschule Regensburg,Regensburg,Germany,2015-12-01,Experimental and numerical investigation of blankholder’s vibration in a forming tool: a coupled MBS-FEM approach,49.0195333,12.0974869,0
Lee J.S.,Seoul National University College of Medicine,Seoul,South Korea,2015-12-01,Innovative Physics and Engineering Research in Nuclear Medicine and Molecular Imaging: A Message from the Associate Editor,37.5666791,126.9782914,3
Lee S.H.,Korea Advanced Institute of Science and Technology,Daejeon,South Korea,2015-12-29,Reliability modeling of safety-critical network communication in a digitalized nuclear power plant,36.3497007,127.3849016,3
Panthou G.,IRD Institut de Recherche pour le Developpement,Marseille,France,2015-12-01,Mapping rainfall return level in West Africa: Comparison of different approaches,43.2961743,5.3699525,0
Rasool S.,Universiti Putra Malaysia,Serdang,Malaysia,2015-12-01,Achieving Crop Stress Tolerance and Improvement—an Overview of Genomic Techniques,3.0340649,101.7055684,5
Rugbjerg P.,The Novo Nordisk Foundation Center for Biosustainability,Lyngby,Denmark,2015-12-01,Recombination-stable multimeric green fluorescent protein for characterization of weak promoter outputs in saccharomyces cerevisiae,55.7718649,12.5051413,0
Doerschuk P.,Lamar University,Beaumont,United States,2015-12-02,"Recruiting, retaining and transitioning computing undergraduates the STAIRSTEP way",30.0860459,-94.1018461,2
Garcia A.,Universidad Distrital Francisco José de Caldas,Bogota,Colombia,2015-12-31,"Geostatistical modeling of temperature anomaly in season of the El niño phenomenon in Boyaca, Colombia",4.6533816,-74.0836333,11
Shi H.,China National Offshore Oil Corporation,Beijing,China,2015-12-01,"Geological characteristics and distribution model of oil and gas reservoirs in Zhu I depression, Pearl River Mouth Basin",40.190632,116.412144,3
Chabchoub S.,Institut Supérieur des Technologies Médicales de Tunis,Tunis,Tunisia,2015-12-28,Biomedical monitoring system using LabVIEW FPGA,36.8002068,10.1857757,0
Latyev S.M.,"Saint Petersburg National Research University of Information Technologies, Mechanics and Optics University ITMO",Saint Petersburg,Russian Federation,2015-12-01,Analysis of certain issues in the assembly of fast objectives,59.9606739,30.1586551,0
Ye Y.,Southern Medical University,Guangzhou,China,2015-12-01,Possible role of mechanical force in regulating regeneration of the vascularized fat flap inside a tissue engineering chamber,23.1301964,113.2592945,3
Wang J.,Beihang University,Beijing,China,2015-12-24,The reliability calculation of equipment impact resistance based on stress-strength interference model,40.190632,116.412144,3
Funayama T.,Tokai University,Tokyo,Japan,2015-12-29,Disaster mitigation support system using web services and SNS information,35.6768601,139.7638947,3
Choudhury B.,National Aerospace Laboratories India,Bengaluru,India,2015-12-01,Implementation of Soft Computing Optimization Techniques in Antenna Engineering [Antenna Applications Corner],12.98815675,77.62260003796,7
Parise M.,Consiglio Nazionale delle Ricerche,Rome,Italy,2015-12-01,Anticipating and managing engineering problems in the complex karst environment,41.8933203,12.4829321,0
Wongvigran S.,Siam University,Bangkok,Thailand,2015-12-29,Analysis of call-center operational data using role hierarchy miner,13.7524938,100.4935089,12
Cho J.S.,"Korea Forest Research Institute, Seoul",Seoul,South Korea,2015-12-31,Characterization of a non-specific Lipid Transfer Protein (ns-LTP) promoter from poplar (Populus alba × P. glandulosa),37.5666791,126.9782914,3
Amadi-Echendu J.,University of Pretoria,Pretoria,South Africa,2015-12-10,Techno-economic valuation of GSM investments,-25.7459277,28.1879101,16
Kadlec P.,University of West Bohemia,Plzen,Czech Republic,2015-12-09,Polarization of LLDPE/HNT and HDPE/HNT blends in AC electric field,49.7477415,13.3775249,0
Lee M.,Hanyang University ERICA Campus,Ansan,South Korea,2015-12-02,Highly sensitive straightness measurement system using a ball-lens,37.3217152,126.8308604,3
Lin Y.,I-Shou University,Kaohsiung,Taiwan,2015-12-01,Initialising the induction motor for power system dynamic analysis,22.6203348,120.3120375,3
Khawaja H.,UiT Norges Arktiske Universitet,Tromso,Norway,2015-12-01,Application of a 2-D approximation technique for solving stress analyses problem in FEM,69.6516345,18.9558585,0
Yan Z.,Institute of Acoustics Chinese Academy of Sciences,Beijing,China,2015-12-01,Acoustic detection of cracks in the anvil of a large-volume cubic high-pressure apparatus,40.190632,116.412144,3
Yifeng T.,Beihang University,Beijing,China,2015-12-01,Design space exploration in aircraft conceptual design phase based on system-of-systems simulation,40.190632,116.412144,3
Krinner S.,Universität Regensburg,Regensburg,Germany,2015-12-01,Interplay of promoter usage and intragenic CpG content: Impact on GFP reporter gene expression,49.0195333,12.0974869,0
Kolodner J.,Georgia Institute of Technology,Atlanta,United States,2015-12-01,Cognitive prosthetics for fostering learning: A view from the learning sciences,33.7489924,-84.3902644,2
ZareNezhad B.,Semnan University,Semnan,Iran,2015-12-17,A Rigorous Kinetic Model for Description of Asphaltene Deposition in Porous Media of Petroleum Reservoirs,35.3843145,54.6209302,0
Kim Y.R.,Seoul National University,Seoul,South Korea,2015-12-31,Single cell oil-Recent trends in microbial production and utilization,37.5666791,126.9782914,3
Campbell R.L.,Maseeh College of Engineering and Computer Science,Portland,United States,2015-12-02,Project-based RF/microwave education,45.5202471,-122.674194,2
Li S.,Changsha University of Science and Technology,Changsha,China,2015-12-01,Some problems on deflection test of old cement concrete pavement,28.1450774,113.2384362,3
Fu N.,Singapore Management University,Singapore City,Singapore,2015-12-01,Robust execution strategies for project scheduling with unreliable resources and stochastic durations,1.2899175,103.8519072,5
Jeong S.,Korea Advanced Institute of Science and Technology,Daejeon,South Korea,2015-12-01,Review : Thermal contact problems at cryogenic temperature,36.3497007,127.3849016,3
Bo S.,Harbin Institute of Technology,Harbin,China,2015-12-24,Research on electro-thermal coupling simulation platform of switching mode power supply,45.7593633,126.6276177,3
Pu J.,The University of Chicago,Chicago,United States,2015-12-30,A Panel of Protease-Responsive RNA Polymerases Respond to Biochemical Signals by Production of Defined RNA Outputs in Live Cells,41.8755616,-87.6244212,2
Xu Y.M.,Harbin University of Science and Technology,Harbin,China,2015-12-01,Design methodology of induction motor based on rotor diameter iterating,45.7593633,126.6276177,3
Perreault L.,Norm Asbjornson College of Engineering,Bozeman,United States,2015-12-14,Deriving prognostic continuous time Bayesian networks from D-matrices,45.6794293,-111.044047,2
Torres D.,Purdue University,West Lafayette,United States,2015-12-02,Using social network theory to elucidate the impact of diversity on the social processes in design,40.4258686,-86.9080655,2
Mohanty S.,"International Institute of Information Technology, Hyderabad",Hyderabad,India,2015-12-01,Geotechnical characterization of Panki and Panipat pond ash in India,17.360589,78.4740613,7
Moreno N.A.O.,Universidad Distrital Francisco José de Caldas,Bogota,Colombia,2015-12-31,"Geostatistics applied to study particulate matter PM10 in Mexico City for, January 2014",4.6533816,-74.0836333,11
González De Dios O.,Telefonica,Madrid,Spain,2015-12-01,Multipartner demonstration of BGP-LS-enabled multidomain EON control and instantiation with H-PCE,40.4167047,-3.7035825,0
Sontheimer E.,University of Massachusetts Chan Medical School,Worcester,United States,2015-12-09,Cas9 gets a classmate,42.2625621,-71.8018877,2
Crispo M.,Institut Pasteur de Montevideo,Montevideo,Uruguay,2015-12-01,Advances in the Generation of Genetically Modified (GM) Animal Models: Meeting report,-34.9058916,-56.1913095,17
Dyer J.W.,The University of Oklahoma,Norman,United States,2015-12-02,A semester-long study abroad model for engineering students: The unified project approach,35.2225717,-97.4394816,2
Stavropoulos T.G.,Centre for Research and Technology-Hellas,Thessaloniki,Greece,2015-12-16,Real-time health monitoring and contextualised alerts using wearables,40.6403167,22.9352716,0
Dupre D.,"Laboratoire InterUniversitaire de Psychologie. Personnalité, Cognition, Changement Social",Grenoble,France,2015-12-02,Emotions triggered by innovative products: A multi-componential approach of emotions for user experience tools,45.1875602,5.7357819,0
Borowski D.W.,University Hospital of North Tees,Stockton on Tees,United Kingdom,2015-12-01,Adipose tissue-derived regenerative cell-enhanced lipofilling for treatment of cryptoglandular fistulae-in-ano: The ALFA technique,54.564094,-1.3129164,0
Wang F.,Hebei Agricultural University,Baoding,China,2015-12-01,Study on resolution and analysis method of stripping voltammetric overlapped peaks,38.8579735,115.490696,3
Jones L.,Lincoln Laboratory,Lexington,United States,2015-12-08,Flowtables: Program skeletal inversion for defeat of interprocedural analysis with unique metamorphism,38.0464066,-84.4970393,2
El Tahchy A.,Commonwealth Scientific and Industrial Research Organisation,Canberra,Australia,2015-12-22,Expression of mouse MGAT in arabidopsis results in increased lipid accumulation in seeds,-35.2975906,149.1012676,1
Spencer C.M.,SLAC National Accelerator Laboratory,Menlo Park,United States,2015-12-31,Expanding girls' horizons in physics and other sciences: A successful strategy since 1976,37.4519671,-122.177992,2
Kutz J.N.,University of Washington,Seattle,United States,2015-12-18,Data Methods and Computational Tools for Characterizing Complex Cavity Dynamics,47.6038321,-122.330062,2
Wang Q.,Beihang University,Beijing,China,2015-12-24,Fatigue life prediction of smooth and circular-hole specimens based on equivalent initial flaw size,40.190632,116.412144,3
Hare J.,University of Southampton,Southampton,United Kingdom,2015-12-01,Detection of social events in streams of social multimedia,50.9025349,-1.404189,0
Mahmoud H.,"Walter Scott, Jr. College of Engineering",Fort Collins,United States,2015-12-01,Response of building systems with suspended floor slabs under dynamic excitations,40.5871782,-105.0770113,2
Adams B.,U.S. Army Research Laboratory,Adelphi,United States,2015-12-01,Selective preference of engineered peptides for aluminum alloy,39.0030666,-76.9721023,2
Zhang L.Z.,South China University of Technology,Guangzhou,China,2015-12-09,Oblique fluid flow and convective heat transfer across a tube bank under uniform wall heat flux boundary conditions,23.1301964,113.2592945,3
Berman R.,The Council for Scientific and Industrial Research,Pretoria,South Africa,2015-12-16,Autonomous prediction of performance-based standards for heavy vehicles,-25.7459277,28.1879101,16
Rodríguez O.S.,Universidad Central de Venezuela,Caracas,Venezuela,2015-12-23,"Contribution of geopedology to land use conflict analysis and land use planning in the western urban fringe of Caracas, Venezuela",10.5060934,-66.9146008,-1
Nonoyama T.,Hokkaido University,Sapporo,Japan,2015-12-01,Double-network hydrogel and its potential biomedical application: A review,43.061936,141.3542924,-1
Wasaki A.,Texas A&amp;M University,College Station,United States,2015-12-01,Permeability of organic-rich shale,30.6183939,-96.3455991,2
Siddique N.,Ulster University,Coleraine,United Kingdom,2015-12-01,Applications of Harmony Search Algorithms in Engineering,55.1315912,-6.671861,0
Lu L.,Shanghai Jiao Tong University,Shanghai,China,2015-12-20,Research on calculation method of spatial weighting function for ex-core detector,31.2312707,121.4700152,3
Beriņš J.,Riga Technical University,Riga,Latvia,2015-12-01,Wave energy factors and development perspective analysis in Latvia,56.9493977,24.1051846,0
Khalatbari A.A.,Universiti Putra Malaysia,Serdang,Malaysia,2015-12-01,Wild type and vte<inf>4</inf> mutant arabidopsis thaliana responses to different water frequencies: Genetic engineering towards stress tolerance,3.0340649,101.7055684,5
Makienko M.,Tomsk Polytechnic University,Tomsk,Russian Federation,2015-12-22,Philosophical approach to engineering education under the introduction of the smart grid concept in Russia,58.6124279,82.0475315,13
Guyot Y.,KU Leuven,Leuven,Belgium,2015-12-01,A three-dimensional computational fluid dynamics model of shear stress distribution during neotissue growth in a perfusion bioreactor,50.879202,4.7011675,0
Alie C.,University of Waterloo,Waterloo,Canada,2015-12-01,Using short-term resource scheduling for assessing effectiveness of CCS within electricity generation subsector,43.4652699,-80.5222961,2
Ueda J.,Kyoto University,Kyoto,Japan,2015-12-01,Analysis of optoelectronic properties and development of new persistent phosphor in Ce<sup>3+</sup>-doped garnet ceramics,35.021041,135.7556075,3
Froyd J.E.,Texas A&amp;M University,College Station,United States,2015-12-02,Special session: Introduction to systematic reviews in engineering education research,30.6183939,-96.3455991,2
Jersák J.,Technická Univerzita v Liberci,Liberec,Czech Republic,2015-12-01,Essential features of process fluids applied in machining,50.7702648,15.0583947,0
Kim C.,Hanyang University ERICA Campus,Ansan,South Korea,2015-12-01,A parallel migration scheme for fast virtual machine relocation on a cloud cluster,37.3217152,126.8308604,3
Sundaram R.,Gannon University,Erie,United States,2015-12-02,TIES to STEM: University outreach model for teachers in K-12 STEM schools to be trained in engineering skills,42.1294712,-80.0852695,2
Queirós D.,CICECO – Instituto de Materiais de Aveiro,Aveiro,Portugal,2015-12-01,Unveiling PHA-storing populations using molecular methods,40.640496,-8.6537841,0
Koshima A.A.,Université de Namur,Namur,Belgium,2015-12-01,"Collaborative editing of EMF/Ecore meta-models and models: Conflict detection, reconciliation, and merging in DiCoMEF",50.4665284,4.8661892,0
Wang Y.,"Key Laboratory of Geotechnical and Underground Engineering, Ministry of Education",Shanghai,China,2015-12-10,Analysis of transient dynamic response of cylindrical lined cavity in nearly saturated soil,31.2312707,121.4700152,3
Bailey T.L.,Eastern Illinois University,Charleston,United States,2015-12-01,Protective effects of osmolytes in cryopreserving adherent neuroblastoma (Neuro-2a) cells,32.7884363,-79.9399309,2
Taji N.,Hosei University,Tokyo,Japan,2015-12-10,The global strategy of high-tech startups-case studies of Cambridge region,35.6768601,139.7638947,3
Dai W.,Beihang University,Beijing,China,2015-12-24,Analysis and optimization of plunger necking-in process based on finite element simulation,40.190632,116.412144,3
Viriyasitavat W.,Mahidol University,Nakhon Pathom,Thailand,2015-12-02,Quantifying the benefit of accident notification application in freeway VANETs,13.8918425,100.0165659,12
Li Q.,Hubei University,Wuhan,China,2015-12-08,In situ solution polymerization for preparation of MDI-modified graphene/hyperbranched poly(ether imide) nanocomposites and their properties,30.5951051,114.2999353,3
Tayeh N.,Laboratoire CNRS Unité de Recherche Agroécologie,Dijon,France,2015-12-01,"Development of two major resources for pea genomics: The GenoPea 13.2K SNP Array and a high-density, high-resolution consensus genetic map",47.3215806,5.0414701,0
Ménoret S.,Structure Fédérative de Recherche François Bonamy,Nantes,France,2015-12-01,"Transgenic animals and genetic engineering techniques. Nantes, France, 2–3 July, 2015",47.2186371,-1.5541362,0
Li Y.,Tianjin University of Science &amp; Technology,Tianjin,China,2015-12-01,Human adaptive balance reaction to gait instability caused by slip disturbance during downhill walking,39.3032619,117.4163641,3
Dumont C.M.,"University of Michigan, Ann Arbor",Ann Arbor,United States,2015-12-10,Controlled release strategies for modulating immune responses to promote tissue regeneration,42.2813722,-83.7484616,2
Veldman J.,Rijksuniversiteit Groningen,Groningen,Netherlands,2015-12-01,Competitive investments in cost reducing process improvement: The role of managerial incentives and spillover learning,53.2190652,6.5680077,0
Duraipandi S.,Taylor's University Malaysia,Subang Jaya,Malaysia,2015-12-12,"Reverse engineering of Ayurvedic lipid based formulation, ghrita by combined column chromatography, normal and reverse phase HPTLC analysis",3.051487,101.5823339,5
Thouand G.,Nantes Université,Nantes,France,2015-12-02,"Bioluminescent microbial biosensors: Design, construction, and implementation",47.2186371,-1.5541362,0
Collingbourne L.,Victoria University of Wellington,Wellington,New Zealand,2015-12-02,Teaching project management using a real-world group project,-41.2887953,174.7772114,18
Ilioudis V.C.,Alexander Technological Educational Institute of Thessaloniki,Thessaloniki,Greece,2015-12-01,Antiwindup design for sensorless control of PMSM using multilevel saturation feedback,40.6403167,22.9352716,0
Durica L.,University of Žilina,Zilina,Slovakia,2015-12-01,Manufacturing multi-agent system with bio-inspired techniques: CODESA-Prime,49.2234674,18.7393139,0
Guo J.,State Key Laboratory of Industrial Control Technology,Hangzhou,China,2015-12-01,A new semi-active safety control strategy for high-speed railway vehicles,30.2489634,120.2052342,3
Binion W.,Texas A&amp;M University,College Station,United States,2015-12-01,Modeling the effect of reflective calf hutch covers on reducing heat loss,30.6183939,-96.3455991,2
Mandakovic D.,Universidad de Chile,Santiago,Chile,2015-12-20,"Complete genome sequence of Microbacterium sp. CGR1, bacterium tolerant to wide abiotic conditions isolated from the Atacama Desert",-33.4377756,-70.6504502,17
Doyle L.,Fred Hutchinson Cancer Center,Seattle,United States,2015-12-24,Rational design of α-helical tandem repeat proteins with closed architectures,47.6038321,-122.330062,2
Johnson B.,Itasca Community College,Grand Rapids,United States,2015-12-02,The impacts of project based learning on self-directed learning and professional skill attainment: A comparison of project based learning to traditional engineering education,42.9632425,-85.6678639,2
Liu J.,University of Alberta,Edmonton,Canada,2015-12-01,Computer-Aided design-computeraided engineering associative feature-based heterogeneous object modeling,53.5462055,-113.491241,2
Miteva D.,Sofia University St. Kliment Ohridski,Sofia,Bulgaria,2015-12-16,Data analytics support for inquiry based learning,42.6977028,23.3217359,0
Yang Y.J.,Pohang University of Science and Technology,Pohang,South Korea,2015-12-14,Mechanically Durable and Biologically Favorable Protein Hydrogel Based on Elastic Silklike Protein Derived from Sea Anemone,36.0189315,129.3429384,3
Li L.,Harbin Institute of Technology,Harbin,China,2015-12-30,Moment modulation design method of reinforced concrete continuous beam with high-strength hot-rolled bar,45.7593633,126.6276177,3
Meireles A.,Universidade do Porto,Porto,Portugal,2015-12-15,Efficacy of antimicrobial combinations to reduce the use of sodium hypochlorite in the control of planktonic and sessile Escherichia coli,41.1494512,-8.6107884,0
Cha J.,"Clemson University College of Engineering, Computing and Applied Sciences",Clemson,United States,2015-12-01,"Classical Statistical Inference Extended to Truncated Populations for Continuous Process Improvement: Test Statistics, P-values, and Confidence Intervals",34.6850749,-82.8364111,2
Binner H.,Gottfried Wilhelm Leibniz Universität Hannover,Hannover,Germany,2015-12-01,Timely organizational development: At the center of design stands the process,52.3744779,9.7385532,0
Lien D.H.,King Abdullah University of Science and Technology,Thuwal,Saudi Arabia,2015-12-21,Surface effects in metal oxide-based nanodevices,22.2833454,39.1128145,15
Orth P.,Universitätsklinikum des Saarlandes Medizinische Fakultät der Universität des Saarlandes,Homburg,Germany,2015-12-01,Advancement of the Subchondral Bone Plate in Translational Models of Osteochondral Repair: Implications for Tissue Engineering Approaches,49.3181673,7.3340336,0
Hysenaj M.,University Luigj Gurakuqi of Shkodër,Unknown,Albania,2015-12-16,Spatio-Textual technology: The future of web search,41.328203,19.8219052,0
Matsuoka Y.,Kyushu Institute of Technology,Kitakyushu,Japan,2015-12-01,Current status and future perspectives of kinetic modeling for the cell metabolism with incorporation of the metabolic regulation mechanism,33.8829996,130.8749015,3
Tick J.,Obuda University,Budapest,Hungary,2015-12-11,Aspects of software system development with respect to IT outsourcing,47.4978789,19.0402383,0
Liu Q.,Wuhan University,Wuhan,China,2015-12-01,A prediction model for uniaxial compressive strength of deteriorated rocks due to freeze-thaw,30.5951051,114.2999353,3
Doronin M.S.,Lobachevsky State University of Nizhni Novgorod,Nizhny Novgorod,Russian Federation,2015-12-01,"Analysis, modification and development of the state-of-the-art two-photon laser microscope in view of the features of its use in neuroscience",56.27692915,43.92129807149434,0
Zeng X.,University of Chinese Academy of Sciences,Beijing,China,2015-12-29,JMSS-1: A new Martian soil simulant Planetary science,40.190632,116.412144,3
Gu T.,Beihang University,Beijing,China,2015-12-24,Extracting interdependent requirements and resolving conflicted requirements of safety and security for industrial control systems,40.190632,116.412144,3
Jeong E.J.,Hanyang University,Seoul,South Korea,2015-12-21,The spacer arm length in cell-penetrating peptides influences chitosan/siRNA nanoparticle delivery for pulmonary inflammation treatment,37.5666791,126.9782914,3
Rai D.C.,Indian Institute of Technology Kanpur,Kanpur,India,2015-12-10,Performance of residential buildings during the M 7.8 Gorkha (Nepal) earthquake of 25 April 2015,26.4609135,80.3217588,7
Silverman T.J.,National Renewable Energy Laboratory,Golden,United States,2015-12-14,Thermal and electrical effects of partial shade in monolithic thin-film photovoltaic modules,39.7546349,-105.22058,2
Stefano N.,Universidade Federal de Santa Catarina,Florianopolis,Brazil,2015-12-01,COPRAS (Complex Proportional Assessment): State of the art research and its applications,-27.5973002,-48.5496098,4
Stampfel G.,"Research Institute of Molecular Pathology, Vienna",Vienna,Austria,2015-12-03,Transcriptional regulators form diverse groups with context-dependent regulatory functions,48.2083537,16.3725042,0
Chaldogeridis A.,Aristotle University of Thessaloniki,Thessaloniki,Greece,2015-12-16,Cognitive training supported by information and communication technologies,40.6403167,22.9352716,0
Gómez G.P.P.,Universidad EAFIT,Medellin,Colombia,2015-12-02,Technological tools to learn calculus,6.269732449999999,-75.60255965090315,11
Augustine R.,National Institute for Plant Genome Research India,New Delhi,India,2015-12-10,Biofortification of oilseed Brassica juncea with the anti-cancer compound glucoraphanin by suppressing GSL-ALK gene family,28.64308585,77.21926705734865,7
Gensterblum Y.,Stanford University,Stanford,United States,2015-12-01,Gas transport and storage capacity in shale gas reservoirs - A review. Part A: Transport processes,37.427467,-122.1702445,2
Enisherlova K.L.,Federal State Unitary Enterprise,Severodvinsk,Russian Federation,2015-12-01,Influence of the silicon layer’s properties on the capacitance parameters of MIS/SOS structures,64.563385,39.823769,0
Whalley R.,British University in Dubai,Dubai,United Arab Emirates,2015-12-01,Gas pipeline modelling and control,25.2653471,55.2924914,0
Kwon J.,"Jeonbuk National University, School of Medicine",Jeonju,South Korea,2015-12-01,The Alginate Layer for Improving Doxorubicin Release and Radiolabeling Stability of Chitosan Hydrogels,35.8237631,127.1472805,3
Hussein M.,Université de Toulouse,Toulouse,France,2015-12-24,Frugal topologies for saving energy in IP networks,43.6044622,1.4442469,0
Karukonda T.,UConn Health,Farmington,United States,2015-12-28,Injectable hydrogels for intervertebral tissue regeneration,44.6402434,-93.1435497,2
Al-Shalabi E.W.,The University of Texas at Austin,Austin,United States,2015-12-01,Geochemical interpretation of low-salinity-water injection in carbonate oil reservoirs,30.2711286,-97.7436995,2
Aleem W.,Universiti Teknologi PETRONAS,Seri Iskandar,Malaysia,2015-12-17,A Model for the Estimation of Surface Tension of Pure Hydrocarbon Liquids,4.3612524,100.9508728,5
Ross M.,College of Engineering,West Lafayette,United States,2015-12-02,Stories of Black women in engineering industry - Why they leave,40.4258686,-86.9080655,2
Schenke-Layland K.,Fraunhofer Institute for Interfacial Engineering and Biotechnology IGB,Stuttgart,Germany,2015-12-01,Prospects for regenerative medicine approaches in women's health,48.7784485,9.1800132,0
Wang S.,Handan University,Handan,China,2015-12-01,Research into a wireless smart parking system,36.6107711,114.4857072,3
Pang H.,China University of Petroleum-Beijing,Beijing,China,2015-12-01,"Factors controlling hydrocarbon reservoir formation and distribution and prediction of favourable areas in the Jurassic Toutunhe Formation in the Fudong slope, Junggar Basin, China",40.190632,116.412144,3
Shimojo A.,Universidade Estadual de Campinas,Campinas,Brazil,2015-12-18,Sterilization of auto-crosslinked hyaluronic acid scaffolds structured in microparticles and sponges,-22.9056391,-47.059564,4
Nor M.A.M.,Universiti Teknologi PETRONAS,Seri Iskandar,Malaysia,2015-12-22,Numerical analysis of cocurrent conical and cylindrical axial cyclone separators,4.3612524,100.9508728,5
Blagojević M.R.,University of Kragujevac,Kragujevac,Serbia,2015-12-28,Numerical modeling of the edentulous mandible with different mucosa thickness and resiliency using multiblock method,44.0130251,20.91925,0
Bao J.,Ningbo University,Ningbo,China,2015-12-01,A modified control method for congested traffic in car-following model,29.8622194,121.6203873,3
Yousefi J.,Ferdowsi University of Mashhad,Mashhad,Iran,2015-12-24,Masking wrong-successor Control Flow Errors employing data redundancy,36.2974945,59.6059232,0
Antoniou P.E.,School of Medicine,Thessaloniki,Greece,2015-12-22,Design of novel teaching episodes in medical education using emerging experiential digital assets; technology enabled medical education beyond the Gimmicky,40.6403167,22.9352716,0
Torrence M.,"University of South Florida, Tampa",Tampa,United States,2015-12-01,"Services and resources to engineers: A case study of outreach and marketing, assessment, and future directions in a research library",27.9477595,-82.458444,2
Kenttälä V.,University of Jyväskylä,Jyvaskyla,Finland,2015-12-02,Usability challenges in digital learning solutions,62.2417066,25.7495727,0
Rowland C.E.,U.S. Naval Research Laboratory,"Washington, D.C.",United States,2015-12-01,Intracellular FRET-based probes: A review,38.8950368,-77.0365427,2
Faiz M.M.U.,University of Hafr Al-Batin,Hafar al Batin,Saudi Arabia,2015-12-02,Assessment of a cooperative training course using faculty course assessment report in an ABET accredited engineering technology program,28.4328084,45.9627527,0
Lin Z.,Tsinghua University,Beijing,China,2015-12-01,Aggregating tags for column-free protein purification,40.190632,116.412144,3
Sakai Y.,Graduate School of Biomedical Sciences,Nagasaki,Japan,2015-12-01,Rapid production of engineered human primary hepatocyte/fibroblast sheets,33.1154683,129.7874339,3
Bashir S.,Universiti Malaya,Kuala Lumpur,Malaysia,2015-12-01,"N-succinyl chitosan preparation, characterization, properties and biomedical applications: A state of the art review",3.1516964,101.6942371,5
Puttonen K.,Itä-Suomen yliopisto,Kuopio,Finland,2015-12-08,Generation of functional neuromuscular junctions from human pluripotent stem cell lines,62.8924601,27.6781839,0
Sax L.J.,"University of California, Los Angeles",Los Angeles,United States,2015-12-01,“But I’m Not Good at Math”: The Changing Salience of Mathematical Self-Concept in Shaping Women’s and Men’s STEM Aspirations,34.0536909,-118.242766,2
Chiu P.H.P.,City University of Hong Kong,Hong Kong,Hong Kong,2015-12-02,A pedagogical model for introducing 3D printing technology in a freshman level course based on a classic instructional design theory,22.2793278,114.1628131,3
Zhu B.,Nanjing University,Nanjing,China,2015-12-01,Passive Metasurface for Reflectionless and Arbitary Control of Electromagnetic Wave Transmission,32.0438284,118.7788631,3
Molina E.R.,George R. Brown School of Engineering,Houston,United States,2015-12-10,Immunomodulatory properties of stem cells and bioactive molecules for tissue engineering,29.7589382,-95.3676974,2
Zhou Q.,Lanzhou University,Lanzhou,China,2015-12-08,The Design and Implementation of Embedded Online Laboratory,36.474436,103.733224,9
Zavyalova D.,Siberian State University of Telecommunications and Informatics Science,Novosibirsk,Russian Federation,2015-12-21,Comparison of system capacity of 4G cellular networks for different scheduling algorithms,54.96781445,82.95159894278376,13
White E.M.,Yale University,New Haven,United States,2015-12-01,A solenoid design for assessing determinants of parallel β-sheet registration,41.3082138,-72.9250518,2
Younger J.,University of Glasgow,Glasgow,United Kingdom,2015-12-01,"Greater Jakarta, the world’s second largest conurbation - Part 1",55.861155,-4.2501687,0
Yi X.J.,Beijing Institute of Technology,Beijing,China,2015-12-24,Reliability analysis of hydraulic steering system with DICLFL considering shutdown correlation based on GO methodology,40.190632,116.412144,3
Kim M.J.,Pusan National University,Busan,South Korea,2015-12-01,Stimulated myogenic differentiation of C2C12 murine myoblasts by using graphene oxide,35.1799528,129.0752365,3
Araldi R.,Laboratório Nacional de Biorrenováveis,Campinas,Brazil,2015-12-01,Performance of herbicides in sugarcane straw,-22.9056391,-47.059564,4
Molina A.,Tecnológico de Monterrey,Monterrey,Mexico,2015-12-10,(University) technology parks toolkit: Knowledge transfer and innovation - The Tecnológico de Monterrey experience,25.6802019,-100.315258,2
Xing C.,Beijing University of Chemical Technology,Beijing,China,2015-12-01,A fault diagnosis method of reciprocating compressor based on sensitive feature evaluation and artificial neural network,40.190632,116.412144,3
Sezdi M.,İstanbul University-Cerrahpaşa Cerrahpaşa Faculty of Medicine,Istanbul,Turkey,2015-12-30,The nonconformities of the consumables in sterilization processes and corrective-preventive activities,41.0766019,29.052495,0
López-Ruiz A.,Universidad de Granada,Granada,Spain,2015-12-01,A simple approximation for wave refraction - Application to the assessment of the nearshore wave directionality,37.1734995,-3.5995337,0
Könitzer J.,Boehringer Ingelheim International GmbH,Ingelheim am Rhein,Germany,2015-12-01,Reformatting rituximab into human IgG2 and IgG4 isotypes dramatically improves apoptosis induction in vitro,49.9752749,8.0547274,0
Liu L.,University of Connecticut,Storrs,United States,2015-12-01,Applications of the Hilbert-Huang transform for microtremor data analysis enhancement,41.80564555,-72.25413294148728,2
Barus A.,Del Institute of Technology,Unknown,Indonesia,2015-12-10,White box testing tool prototype development,-7.5781334,110.93710861567568,19
Zhang Y.,Northeast Electric Power University,Jilin,China,2015-12-01,Axial compression experimental study of composite walls based on steel plate elastic buckling theory,43.5825834,126.12661770729828,3
Ismail M.,Universiti Malaya,Kuala Lumpur,Malaysia,2015-12-22,Statistical analysis of imperfection effect on cylindrical buckling response,3.1516964,101.6942371,5
Riley S.,United States Geological Survey,Reston,United States,2015-12-01,Factors associated with the deposition of Cladophora on Lake Michigan beaches in 2012,38.95321195,-77.35018103387603,2
Tam V.,Western Sydney University,Penrith,Australia,2015-12-15,Long-term deformation behaviour of recycled aggregate concrete,-33.7511954,150.6941711,1
Igba J.,Vestas Wind Systems A/S,Aarhus,Denmark,2015-12-18,A framework for optimising product performance through feedback and reuse of in-service experience,56.1496278,10.2134046,0
Wu J.,Shandong Jianzhu University,Jinan,China,2015-12-10,Parametric modeling and shape optimization of four typical Schwedler spherical reticulated shells,36.6519754,117.1138479,3
Benedikt J.,ILF Consulting Engineers,Innsbruck,Austria,2015-12-01,Current state of design and construction for the St. Kanzian tunnel chain / Aktueller Planungs- und Ausführungsstand der Tunnelkette St. Kanzian,47.2654296,11.3927685,0
Etzerodt T.,Aarhus Universitet,Aarhus,Denmark,2015-12-02,"2,4-Dihydroxy-7-methoxy-2H-1,4-benzoxazin-3(4H)-one (DIMBOA) inhibits trichothecene production by Fusarium graminearum through suppression of Tri6 expression",56.1496278,10.2134046,0
Li L.,Zhengzhou University of Aeronautics,Zhengzhou,China,2015-12-01,Nonlinear bending of the block spherical reticulated shells with damage under the transverse load,34.7533392,113.6599983,3
O'Loughlin C.,Technological University of the Shannon: Midlands Midwest (TUS),Limerick,Ireland,2015-12-02,Collaboration in the development of a Precision Engineering programme at Limerick Institute of Technology in response to a call from industry,52.661252,-8.6301239,0
Bartelle B.B.,MIT School of Engineering,Cambridge,United States,2015-12-01,Engineering an effective Mn-binding MRI reporter protein by subcellular targeting,42.3656347,-71.1040018,2
Schulman L.J.,California Institute of Technology,Pasadena,United States,2015-12-01,Allocation of divisible goods under lexicographic preferences,34.1476507,-118.144155,2
Görgens A.,Universitätsklinikum Essen,Essen,Germany,2015-12-01,From Basic Biology to Engineering and Clinical Translation of Stem Cells: Meeting Report on the 8th International Meeting of the Stem Cell Network North Rhine Westphalia,51.4582235,7.0158171,0
Fu X.,State Key Laboratory of Marine Geology,Shanghai,China,2015-12-01,"Detrital zircon provenance of upper mingyuefeng formation in west slope of Lishui-Jiaojiang Sag, the East China Sea",31.2312707,121.4700152,3
Bottoms S.A.I.,Oregon State University,Corvallis,United States,2015-12-01,Learning to Teach Elementary Science Through Iterative Cycles of Enactment in Culturally and Linguistically Diverse Contexts,44.5645659,-123.2620435,2
Villarreal M.C.,College of Engineering,Atlanta,United States,2015-12-01,Improving Procedure Start Times and Decreasing Delays in Interventional Radiology: A Department's Quality Improvement Initiative,33.7489924,-84.3902644,2
Keshishzadeh S.,Amirkabir University of Technology,Tehran,Iran,2015-12-24,Single lead Electrocardiogram feature extraction for the human verification,35.6892523,51.3896004,0
Eudes A.,Joint BioEnergy Institute,Emeryville,United States,2015-12-01,Expression of a bacterial 3-dehydroshikimate dehydratase reduces lignin content and improves biomass saccharification efficiency,37.8314089,-122.2865266,2
Cheali P.,Technical University of Denmark,Lyngby,Denmark,2015-12-18,Early-Stage Design and Analysis of Biorefinery Networks,55.7718649,12.5051413,0
Levin M.,Institute for Information Transmission Problems of the Russian Academy of Sciences,Moscow,Russian Federation,2015-12-21,Digraph based medical treatment planning,55.625578,37.6063916,0
Glaab M.,University of Plymouth,Plymouth,United Kingdom,2015-12-01,Toward enhanced data exchange capabilities for the oneM2M service platform,50.3714122,-4.1424451,0
Singh A.K.,"Indian Institute of Technology (Indian School of Mines), Dhanbad",Dhanbad,India,2015-12-01,"Influence of corrugated boundary surfaces, reinforcement, hydrostatic stress, heterogeneity and anisotropy on Love-type wave propagation",23.7952809,86.4309638,7
Ye S.,Sinopec,Beijing,China,2015-12-01,"Characteristics and quantitative prediction of tight sand gas reservoirs in superimposed tight sandstone gas-bearing area, western Sichuan depression",40.190632,116.412144,3
Yusup S.,Universiti Teknologi PETRONAS,Seri Iskandar,Malaysia,2015-12-18,Determination of Optimum Condition for the Production of Rice Husk-Derived Bio-oil by Slow Pyrolysis Process,4.3612524,100.9508728,5
Ping Z.,KARAMAY HONGYOU Software CO. LTD.,Beijing,China,2015-12-18,Digitizing construction method of large knowledge base system,40.190632,116.412144,3
Kennedy G.J.,College of Engineering,Atlanta,United States,2015-12-20,Discrete thickness optimization via piecewise constraint penalization,33.7489924,-84.3902644,2
Li L.,China University of Petroleum (East China),Qingdao,China,2015-12-16,Design and Control of Different Pressure Thermally Coupled Reactive Distillation for Methyl Acetate Hydrolysis,36.0637967,120.3192081,3
Yang L.,Xi'an University of Technology,Xi'an,China,2015-12-23,Interaction of highly nonlinear solitary waves with large plates,34.261004,108.9423363,3
Wang Y.,Nanjing Hydraulic Research Institute,Nanjing,China,2015-12-01,Physical modelling of initial seepage failure process,32.0438284,118.7788631,3
Maduliat S.,University of Melbourne,Melbourne,Australia,2015-12-01,Energy absorption of steel hollow tubes under bending,-37.8142454,144.9631732,1
Santos T.,Faculdade de Ciências e Tecnologia da Universidade Nova de Lisboa,Caparica,Portugal,2015-12-10,Agents and rules for the negotiation of interoperability solutions,38.65374105,-9.208963679535769,0
Albers S.C.,Colorado State University,Fort Collins,United States,2015-12-20,Engineering of genetic control tools in Synechocystis sp. PCC 6803 using rational design techniques,40.5871782,-105.0770113,2
Zhang Y.,North China Electric Power University,Beijing,China,2015-12-01,Association analysis of system failure in wide area backup protection system,40.190632,116.412144,3
Liu H.,Northwest A&amp;F University,Yangling,China,2015-12-01,Fine genetic mapping of the white immature fruit color gene w to a 33.0-kb region in cucumber (Cucumis sativus L.),31.7574228,105.7158051,3
Heumann J.,Friedrich-Alexander-Universität Erlangen-Nürnberg,Erlangen,Germany,2015-12-01,To coerce or to enable Exercising formal control in a large information systems project,49.5891571,10.98120719922546,0
Durant E.,Milwaukee School of Engineering,Milwaukee,United States,2015-12-02,CE2016: Updated computer engineering curriculum guidelines,43.0386475,-87.9090751,2
Zhao H.,Henan Polytechnic University,Jiaozuo,China,2015-12-01,Reliability Analysis Using Chaotic Particle Swarm Optimization,35.1375,113.143889,3
Bernardeschi C.,Università di Pisa,Pisa,Italy,2015-12-22,Towards a formalization of system requirements for an integrated clinical environment,43.4714722,10.679791173704576,0
Strayer D.L.,The University of Utah,Salt Lake City,United States,2015-12-01,Driven to Distraction,40.7596198,-111.886797,2
Abdullah N.A.Z.,Universiti Malaysia Pahang Al-Sultan Abdullah,Pekan,Malaysia,2015-12-22,A review on model updating in structural dynamics,3.4895509,103.390396,5
Cao Z.,Communication University of China,Beijing,China,2015-12-29,Research of the application of the Fourier transform algorithm for parabolic equation in radio wave diffraction,40.190632,116.412144,3
De Bock J.,Universiteit Gent,Ghent,Belgium,2015-12-01,"Conditioning, updating and lower probability zero",51.0538286,3.7250121,0
Su Y.,Shandong University,Jinan,China,2015-12-01,Generating implications from one-variable functions,36.6519754,117.1138479,3
Fu W.,NYU Abu Dhabi,Abu Dhabi,United Arab Emirates,2015-12-25,Developing diatoms for value-added products: Challenges and opportunities,24.4538352,54.3774014,0
Heidaryan M.,"Islamic Azad University, Central Tehran Branch",Tehran,Iran,2015-12-24,Robust hand gestures tracking method in cluttered background based on multilayer perceptron,35.6892523,51.3896004,0
Dan C.,Southwest Jiaotong University,Chengdu,China,2015-12-01,Test method and application of fatigue crack propagation with C-ring specimen,30.6598628,104.0633717,3
Brooks D.M.,"Risktec Solutions, Inc.",Houston,United States,2015-12-01,Human factors considerations: Midstream process safety integration,29.7589382,-95.3676974,2
Abdulrazak B.,Université de Sherbrooke,Sherbrooke,Canada,2015-12-22,Prevent cooking risks in kitchen of elderly people: Adaptable reasoning engine based on fuzzy logic for smart oven,45.403271,-71.889038,2
Pearce D.J.,Victoria University of Wellington,Wellington,New Zealand,2015-12-01,Designing a verifying compiler: Lessons learned from developing Whiley,-41.2887953,174.7772114,18
Yuan H.,Langfang Teachers University,Langfang,China,2015-12-01,Three-dimensional parametric modeling and digital research of ancient architecture,39.5302055,116.6926134,3
Liu S.,Shenzhen Stock Exchange,Shenzhen,China,2015-12-01,Intraday Value-at-Risk: An asymmetric autoregressive conditional duration approach,22.5445741,114.0545429,3
Wang X.,Xi'an University of Architecture and Technology,Xi'an,China,2015-12-01,Airflow characteristics generated by fabric air dispersion ventilation,34.261004,108.9423363,3
Boness K.,University of Reading,Reading,United Kingdom,2015-12-02,The synergies between goal sketching and enterprise architecture,51.4564242,-0.9700664,0
Ratrout N.T.,King Fahd University of Petroleum and Minerals,Dhahran,Saudi Arabia,2015-12-01,Calibration of PARAMICS Model: Application of Artificial Intelligence-Based Approach,26.2966528,50.1202146,0
Christou C.,University of Nicosia,Nicosia,Cyprus,2015-12-16,"Cypriot firms, social media &amp; user-generated content platforms",35.1746503,33.3638783,0
Kuiper N.,Keele University,Keele,United Kingdom,2015-12-01,A detailed quantitative outcome measure of glycosaminoglycans in human articular cartilage for cell therapy and tissue engineering strategies,53.0038078,-2.2877425,0
Bertrand C.,Université Bourgogne Franche-Comté,Besancon,France,2015-12-01,"Hydrochemical response of a fractured carbonate aquifer to stress variations: application to leakage detection of the Vouglans arch dam lake (Jura, France)",47.2380222,6.0243622,0
Hagen C.K.,University College London,London,United Kingdom,2015-12-14,High contrast microstructural visualization of natural acellular matrices by means of phase-based x-ray tomography,51.5074456,-0.1277653,0
Begeš G.,Univerza v Ljubljani,Ljubljana,Slovenia,2015-12-01,Automatic weather stations and the quality function deployment method,46.0500268,14.5069289,0
Böckmann T.,Deutsches Elektronen-Synchrotron (DESY),Hamburg,Germany,2015-12-18,Design of the control system for the cryogenic distribution system of the European XFEL project,53.550341,10.000654,0
